id,nombre,apellido,email,sexo,dimensions,requirements,longitude,latitude
1,Carlita,Karczinski,ckarczinski0@irs.gov,Female,"[{""name"":""Fuerza"",""score"":8},{""name"":""Destreza"",""score"":10},{""name"":""Liderazgo"",""score"":1},{""name"":""Motivacion"",""score"":2},{""name"":""Conocimiento"",""score"":9}]","[{""name"":""linterna"",""score"":10},{""name"":""botas"",""score"":6},{""name"":""cuerda"",""score"":10},{""name"":""pala"",""score"":5},{""name"":""alta estatura"",""score"":5}]",-70.0304205467103,-20.8958892768838
2,Gerik,Cars,gcars1@flavors.me,Male,"[{""name"":""Fuerza"",""score"":9},{""name"":""Destreza"",""score"":9},{""name"":""Liderazgo"",""score"":3},{""name"":""Motivacion"",""score"":1},{""name"":""Conocimiento"",""score"":2}]","[{""name"":""linterna"",""score"":10},{""name"":""botas"",""score"":9},{""name"":""cuerda"",""score"":2},{""name"":""pala"",""score"":8},{""name"":""alta estatura"",""score"":8},{""name"":""guantes"",""score"":2}]",-70.110894271425,-20.7936949725973
3,Ossie,Sheryn,osheryn2@booking.com,Male,"[{""name"":""Fuerza"",""score"":5},{""name"":""Destreza"",""score"":7},{""name"":""Liderazgo"",""score"":9},{""name"":""Motivacion"",""score"":6},{""name"":""Conocimiento"",""score"":9}]","[{""name"":""linterna"",""score"":2}]",-69.9469408662982,-21.2147925125998
4,Tobe,Castagneri,tcastagneri3@indiegogo.com,Female,"[{""name"":""Fuerza"",""score"":8},{""name"":""Destreza"",""score"":4},{""name"":""Liderazgo"",""score"":9},{""name"":""Motivacion"",""score"":10},{""name"":""Conocimiento"",""score"":4}]","[{""name"":""linterna"",""score"":7}]",-69.9532284707566,-20.0924306984322
5,Venus,Jorgesen,vjorgesen4@privacy.gov.au,Female,"[{""name"":""Fuerza"",""score"":5},{""name"":""Destreza"",""score"":8},{""name"":""Liderazgo"",""score"":10},{""name"":""Motivacion"",""score"":7},{""name"":""Conocimiento"",""score"":7}]","[{""name"":""linterna"",""score"":2},{""name"":""botas"",""score"":8},{""name"":""cuerda"",""score"":10},{""name"":""pala"",""score"":6},{""name"":""alta estatura"",""score"":10},{""name"":""guantes"",""score"":4},{""name"":""primeros auxilios"",""score"":8},{""name"":""condicion fisica"",""score"":1},{""name"":""casco"",""score"":5}]",-70.0418768869521,-20.275823647603
6,Gloriana,Paulot,gpaulot5@ameblo.jp,Female,"[{""name"":""Fuerza"",""score"":5},{""name"":""Destreza"",""score"":9},{""name"":""Liderazgo"",""score"":5},{""name"":""Motivacion"",""score"":5},{""name"":""Conocimiento"",""score"":8}]","[{""name"":""linterna"",""score"":10},{""name"":""botas"",""score"":5},{""name"":""cuerda"",""score"":5},{""name"":""pala"",""score"":8},{""name"":""alta estatura"",""score"":2}]",-69.9983608423759,-20.2460256468063
7,Wells,Larvin,wlarvin6@posterous.com,Male,"[{""name"":""Fuerza"",""score"":5},{""name"":""Destreza"",""score"":10},{""name"":""Liderazgo"",""score"":8},{""name"":""Motivacion"",""score"":9},{""name"":""Conocimiento"",""score"":10}]","[{""name"":""linterna"",""score"":10},{""name"":""botas"",""score"":3}]",-69.8902606030894,-20.1663393227811
8,Nico,Ranstead,nranstead7@mlb.com,Male,"[{""name"":""Fuerza"",""score"":8},{""name"":""Destreza"",""score"":8},{""name"":""Liderazgo"",""score"":8},{""name"":""Motivacion"",""score"":5},{""name"":""Conocimiento"",""score"":1}]","[{""name"":""linterna"",""score"":1},{""name"":""botas"",""score"":4}]",-69.6479865367381,-20.1939207598008
9,Edan,Kamall,ekamall8@mozilla.com,Male,"[{""name"":""Fuerza"",""score"":10},{""name"":""Destreza"",""score"":10},{""name"":""Liderazgo"",""score"":9},{""name"":""Motivacion"",""score"":4},{""name"":""Conocimiento"",""score"":3}]","[{""name"":""linterna"",""score"":6},{""name"":""botas"",""score"":6},{""name"":""cuerda"",""score"":8},{""name"":""pala"",""score"":10},{""name"":""alta estatura"",""score"":6},{""name"":""guantes"",""score"":9},{""name"":""primeros auxilios"",""score"":1},{""name"":""condicion fisica"",""score"":1}]",-69.0144354893401,-20.796939803665
10,Morten,Stanford,mstanford9@1688.com,Male,"[{""name"":""Fuerza"",""score"":5},{""name"":""Destreza"",""score"":3},{""name"":""Liderazgo"",""score"":1},{""name"":""Motivacion"",""score"":10},{""name"":""Conocimiento"",""score"":4}]","[{""name"":""linterna"",""score"":10},{""name"":""botas"",""score"":2},{""name"":""cuerda"",""score"":8},{""name"":""pala"",""score"":4},{""name"":""alta estatura"",""score"":6},{""name"":""guantes"",""score"":7},{""name"":""primeros auxilios"",""score"":6}]",-69.7212377463126,-19.573282356656
11,Raynor,Norfolk,rnorfolka@com.com,Male,"[{""name"":""Fuerza"",""score"":9},{""name"":""Destreza"",""score"":6},{""name"":""Liderazgo"",""score"":1},{""name"":""Motivacion"",""score"":9},{""name"":""Conocimiento"",""score"":9}]","[{""name"":""linterna"",""score"":7},{""name"":""botas"",""score"":8},{""name"":""cuerda"",""score"":1}]",-69.6683846033383,-19.5131073424502
12,Aurel,Greenier,agreenierb@engadget.com,Female,"[{""name"":""Fuerza"",""score"":1},{""name"":""Destreza"",""score"":2},{""name"":""Liderazgo"",""score"":5},{""name"":""Motivacion"",""score"":9},{""name"":""Conocimiento"",""score"":2}]","[{""name"":""linterna"",""score"":1},{""name"":""botas"",""score"":5},{""name"":""cuerda"",""score"":9},{""name"":""pala"",""score"":3},{""name"":""alta estatura"",""score"":5}]",-69.7401575365727,-19.386367948247
13,Francois,Cardwell,fcardwellc@unesco.org,Male,"[{""name"":""Fuerza"",""score"":7},{""name"":""Destreza"",""score"":6},{""name"":""Liderazgo"",""score"":7},{""name"":""Motivacion"",""score"":2},{""name"":""Conocimiento"",""score"":6}]","[{""name"":""linterna"",""score"":1},{""name"":""botas"",""score"":3},{""name"":""cuerda"",""score"":10},{""name"":""pala"",""score"":4},{""name"":""alta estatura"",""score"":5}]",-68.7097403801537,-19.1956609585068
14,Elnore,Garrud,egarrudd@cbslocal.com,Female,"[{""name"":""Fuerza"",""score"":2},{""name"":""Destreza"",""score"":2},{""name"":""Liderazgo"",""score"":6},{""name"":""Motivacion"",""score"":10},{""name"":""Conocimiento"",""score"":7}]","[{""name"":""linterna"",""score"":8},{""name"":""botas"",""score"":9},{""name"":""cuerda"",""score"":9},{""name"":""pala"",""score"":6},{""name"":""alta estatura"",""score"":2},{""name"":""guantes"",""score"":3},{""name"":""primeros auxilios"",""score"":3}]",-69.0163043091261,-19.4522662204213
15,Chrissy,Proudlove,cproudlovee@dailymail.co.uk,Male,"[{""name"":""Fuerza"",""score"":10},{""name"":""Destreza"",""score"":5},{""name"":""Liderazgo"",""score"":1},{""name"":""Motivacion"",""score"":5},{""name"":""Conocimiento"",""score"":7}]","[{""name"":""linterna"",""score"":7},{""name"":""botas"",""score"":1},{""name"":""cuerda"",""score"":1},{""name"":""pala"",""score"":5},{""name"":""alta estatura"",""score"":1},{""name"":""guantes"",""score"":4},{""name"":""primeros auxilios"",""score"":5},{""name"":""condicion fisica"",""score"":3},{""name"":""casco"",""score"":8}]",-69.2305527490517,-19.0980108657135
16,Caro,Fattorini,cfattorinif@nifty.com,Female,"[{""name"":""Fuerza"",""score"":1},{""name"":""Destreza"",""score"":4},{""name"":""Liderazgo"",""score"":10},{""name"":""Motivacion"",""score"":5},{""name"":""Conocimiento"",""score"":1}]","[{""name"":""linterna"",""score"":2},{""name"":""botas"",""score"":3},{""name"":""cuerda"",""score"":1},{""name"":""pala"",""score"":6},{""name"":""alta estatura"",""score"":5}]",-69.427524195797,-19.0999387952177
17,Caz,Boyson,cboysong@exblog.jp,Male,"[{""name"":""Fuerza"",""score"":1},{""name"":""Destreza"",""score"":1},{""name"":""Liderazgo"",""score"":8},{""name"":""Motivacion"",""score"":3},{""name"":""Conocimiento"",""score"":4}]","[{""name"":""linterna"",""score"":3},{""name"":""botas"",""score"":1},{""name"":""cuerda"",""score"":1},{""name"":""pala"",""score"":4},{""name"":""alta estatura"",""score"":6},{""name"":""guantes"",""score"":7},{""name"":""primeros auxilios"",""score"":1},{""name"":""condicion fisica"",""score"":6},{""name"":""casco"",""score"":3}]",-69.68352832699,-20.0269551193681
18,Laurens,Marikhin,lmarikhinh@studiopress.com,Male,"[{""name"":""Fuerza"",""score"":3},{""name"":""Destreza"",""score"":5},{""name"":""Liderazgo"",""score"":1},{""name"":""Motivacion"",""score"":1},{""name"":""Conocimiento"",""score"":5}]","[{""name"":""linterna"",""score"":7},{""name"":""botas"",""score"":3},{""name"":""cuerda"",""score"":6}]",-69.4232945423808,-19.7315089568983
19,Merell,Loxdale,mloxdalei@dell.com,Male,"[{""name"":""Fuerza"",""score"":5},{""name"":""Destreza"",""score"":1},{""name"":""Liderazgo"",""score"":3},{""name"":""Motivacion"",""score"":6},{""name"":""Conocimiento"",""score"":5}]","[{""name"":""linterna"",""score"":1},{""name"":""botas"",""score"":8},{""name"":""cuerda"",""score"":6},{""name"":""pala"",""score"":1},{""name"":""alta estatura"",""score"":7},{""name"":""guantes"",""score"":2},{""name"":""primeros auxilios"",""score"":2}]",-68.949415201192,-20.362749385906
20,Cristobal,Fritchley,cfritchleyj@adobe.com,Male,"[{""name"":""Fuerza"",""score"":9},{""name"":""Destreza"",""score"":3},{""name"":""Liderazgo"",""score"":5},{""name"":""Motivacion"",""score"":5},{""name"":""Conocimiento"",""score"":5}]","[{""name"":""linterna"",""score"":5}]",-68.8919487183593,-19.7992383388781
21,Donna,Hercock,dhercockk@privacy.gov.au,Female,"[{""name"":""Fuerza"",""score"":5},{""name"":""Destreza"",""score"":10},{""name"":""Liderazgo"",""score"":8},{""name"":""Motivacion"",""score"":6},{""name"":""Conocimiento"",""score"":3}]","[{""name"":""linterna"",""score"":7},{""name"":""botas"",""score"":1}]",-69.110014059482,-20.7102875974606
22,Patrizius,Rosbottom,prosbottoml@hc360.com,Male,"[{""name"":""Fuerza"",""score"":5},{""name"":""Destreza"",""score"":4},{""name"":""Liderazgo"",""score"":10},{""name"":""Motivacion"",""score"":1},{""name"":""Conocimiento"",""score"":3}]","[{""name"":""linterna"",""score"":1},{""name"":""botas"",""score"":5},{""name"":""cuerda"",""score"":7},{""name"":""pala"",""score"":10},{""name"":""alta estatura"",""score"":6},{""name"":""guantes"",""score"":2},{""name"":""primeros auxilios"",""score"":7},{""name"":""condicion fisica"",""score"":1},{""name"":""casco"",""score"":2}]",-68.6369809234678,-24.4779667614752
23,Desiree,Breslin,dbreslinm@php.net,Female,"[{""name"":""Fuerza"",""score"":6},{""name"":""Destreza"",""score"":2},{""name"":""Liderazgo"",""score"":9},{""name"":""Motivacion"",""score"":10},{""name"":""Conocimiento"",""score"":9}]","[{""name"":""linterna"",""score"":4},{""name"":""botas"",""score"":3},{""name"":""cuerda"",""score"":2},{""name"":""pala"",""score"":5},{""name"":""alta estatura"",""score"":7},{""name"":""guantes"",""score"":9},{""name"":""primeros auxilios"",""score"":4}]",-69.2075717339944,-24.1457741657959
24,Web,Blare,wblaren@tumblr.com,Male,"[{""name"":""Fuerza"",""score"":9},{""name"":""Destreza"",""score"":7},{""name"":""Liderazgo"",""score"":2},{""name"":""Motivacion"",""score"":1},{""name"":""Conocimiento"",""score"":4}]","[{""name"":""linterna"",""score"":8},{""name"":""botas"",""score"":10}]",-68.9472066476778,-24.4885388941631
25,Bernard,Thundercliffe,bthundercliffeo@altervista.org,Male,"[{""name"":""Fuerza"",""score"":6},{""name"":""Destreza"",""score"":7},{""name"":""Liderazgo"",""score"":10},{""name"":""Motivacion"",""score"":8},{""name"":""Conocimiento"",""score"":2}]","[{""name"":""linterna"",""score"":8},{""name"":""botas"",""score"":8}]",-70.3292576802984,-23.1651770011915
26,Jannel,Gregore,jgregorep@opensource.org,Female,"[{""name"":""Fuerza"",""score"":6},{""name"":""Destreza"",""score"":2},{""name"":""Liderazgo"",""score"":8},{""name"":""Motivacion"",""score"":8},{""name"":""Conocimiento"",""score"":2}]","[{""name"":""linterna"",""score"":5},{""name"":""botas"",""score"":10},{""name"":""cuerda"",""score"":4},{""name"":""pala"",""score"":7},{""name"":""alta estatura"",""score"":7},{""name"":""guantes"",""score"":9}]",-70.5619109407542,-23.2555536971722
27,Anett,Pasque,apasqueq@parallels.com,Female,"[{""name"":""Fuerza"",""score"":7},{""name"":""Destreza"",""score"":8},{""name"":""Liderazgo"",""score"":8},{""name"":""Motivacion"",""score"":7},{""name"":""Conocimiento"",""score"":5}]","[{""name"":""linterna"",""score"":9},{""name"":""botas"",""score"":2},{""name"":""cuerda"",""score"":1},{""name"":""pala"",""score"":7},{""name"":""alta estatura"",""score"":8}]",-70.4014054815132,-23.2473158204884
28,Sancho,Miskelly,smiskellyr@springer.com,Male,"[{""name"":""Fuerza"",""score"":3},{""name"":""Destreza"",""score"":10},{""name"":""Liderazgo"",""score"":1},{""name"":""Motivacion"",""score"":10},{""name"":""Conocimiento"",""score"":8}]","[{""name"":""linterna"",""score"":2}]",-68.7969000936182,-23.7125577465375
29,Che,Harriot,charriots@ning.com,Male,"[{""name"":""Fuerza"",""score"":1},{""name"":""Destreza"",""score"":6},{""name"":""Liderazgo"",""score"":2},{""name"":""Motivacion"",""score"":2},{""name"":""Conocimiento"",""score"":9}]","[{""name"":""linterna"",""score"":6},{""name"":""botas"",""score"":7},{""name"":""cuerda"",""score"":8},{""name"":""pala"",""score"":4},{""name"":""alta estatura"",""score"":4},{""name"":""guantes"",""score"":7},{""name"":""primeros auxilios"",""score"":1},{""name"":""condicion fisica"",""score"":3}]",-69.8237005144221,-23.2530516275966
30,Matthieu,Hyatt,mhyattt@springer.com,Male,"[{""name"":""Fuerza"",""score"":1},{""name"":""Destreza"",""score"":3},{""name"":""Liderazgo"",""score"":2},{""name"":""Motivacion"",""score"":3},{""name"":""Conocimiento"",""score"":8}]","[{""name"":""linterna"",""score"":4},{""name"":""botas"",""score"":8}]",-69.7163085909228,-23.497799878712
31,Pascale,Honsch,phonschu@trellian.com,Male,"[{""name"":""Fuerza"",""score"":8},{""name"":""Destreza"",""score"":10},{""name"":""Liderazgo"",""score"":1},{""name"":""Motivacion"",""score"":8},{""name"":""Conocimiento"",""score"":7}]","[{""name"":""linterna"",""score"":4}]",-70.4281627433775,-24.7744281688381
32,Gian,Dancey,gdanceyv@g.co,Male,"[{""name"":""Fuerza"",""score"":3},{""name"":""Destreza"",""score"":2},{""name"":""Liderazgo"",""score"":6},{""name"":""Motivacion"",""score"":5},{""name"":""Conocimiento"",""score"":10}]","[{""name"":""linterna"",""score"":6},{""name"":""botas"",""score"":1}]",-69.3316019891895,-25.5413769782575
33,Mathilda,Keir,mkeirw@fda.gov,Female,"[{""name"":""Fuerza"",""score"":5},{""name"":""Destreza"",""score"":10},{""name"":""Liderazgo"",""score"":6},{""name"":""Motivacion"",""score"":1},{""name"":""Conocimiento"",""score"":3}]","[{""name"":""linterna"",""score"":9},{""name"":""botas"",""score"":4},{""name"":""cuerda"",""score"":4},{""name"":""pala"",""score"":7},{""name"":""alta estatura"",""score"":4},{""name"":""guantes"",""score"":1},{""name"":""primeros auxilios"",""score"":10},{""name"":""condicion fisica"",""score"":6}]",-69.582854767561,-25.8200925964353
34,Tadeo,Rickeard,trickeardx@1688.com,Male,"[{""name"":""Fuerza"",""score"":2},{""name"":""Destreza"",""score"":1},{""name"":""Liderazgo"",""score"":9},{""name"":""Motivacion"",""score"":3},{""name"":""Conocimiento"",""score"":2}]","[{""name"":""linterna"",""score"":4},{""name"":""botas"",""score"":6}]",-68.6145003006199,-22.8589573973749
35,Emmie,Guion,eguiony@oakley.com,Female,"[{""name"":""Fuerza"",""score"":5},{""name"":""Destreza"",""score"":10},{""name"":""Liderazgo"",""score"":5},{""name"":""Motivacion"",""score"":10},{""name"":""Conocimiento"",""score"":8}]","[{""name"":""linterna"",""score"":8}]",-68.8805471802391,-22.4678806215027
36,Andrus,Toffano,atoffanoz@prnewswire.com,Male,"[{""name"":""Fuerza"",""score"":7},{""name"":""Destreza"",""score"":9},{""name"":""Liderazgo"",""score"":6},{""name"":""Motivacion"",""score"":9},{""name"":""Conocimiento"",""score"":8}]","[{""name"":""linterna"",""score"":1},{""name"":""botas"",""score"":4}]",-68.1174051922343,-22.201620542571
37,Woodrow,Helder,whelder10@tumblr.com,Male,"[{""name"":""Fuerza"",""score"":10},{""name"":""Destreza"",""score"":1},{""name"":""Liderazgo"",""score"":2},{""name"":""Motivacion"",""score"":4},{""name"":""Conocimiento"",""score"":10}]","[{""name"":""linterna"",""score"":1},{""name"":""botas"",""score"":6},{""name"":""cuerda"",""score"":5},{""name"":""pala"",""score"":3},{""name"":""alta estatura"",""score"":6}]",-68.2469949414393,-21.6128283056011
38,Isahella,Spyer,ispyer11@odnoklassniki.ru,Female,"[{""name"":""Fuerza"",""score"":4},{""name"":""Destreza"",""score"":4},{""name"":""Liderazgo"",""score"":5},{""name"":""Motivacion"",""score"":9},{""name"":""Conocimiento"",""score"":3}]","[{""name"":""linterna"",""score"":8},{""name"":""botas"",""score"":2},{""name"":""cuerda"",""score"":4},{""name"":""pala"",""score"":7},{""name"":""alta estatura"",""score"":1},{""name"":""guantes"",""score"":5},{""name"":""primeros auxilios"",""score"":4},{""name"":""condicion fisica"",""score"":8},{""name"":""casco"",""score"":9}]",-68.414662754525,-21.211295483246
39,Mercedes,Garraway,mgarraway12@slideshare.net,Female,"[{""name"":""Fuerza"",""score"":1},{""name"":""Destreza"",""score"":1},{""name"":""Liderazgo"",""score"":4},{""name"":""Motivacion"",""score"":7},{""name"":""Conocimiento"",""score"":9}]","[{""name"":""linterna"",""score"":8},{""name"":""botas"",""score"":3},{""name"":""cuerda"",""score"":7},{""name"":""pala"",""score"":8},{""name"":""alta estatura"",""score"":2},{""name"":""guantes"",""score"":8},{""name"":""primeros auxilios"",""score"":5}]",-68.4355774226473,-21.1337044013426
40,Julissa,Zum Felde,jzumfelde13@usnews.com,Female,"[{""name"":""Fuerza"",""score"":10},{""name"":""Destreza"",""score"":4},{""name"":""Liderazgo"",""score"":5},{""name"":""Motivacion"",""score"":1},{""name"":""Conocimiento"",""score"":2}]","[{""name"":""linterna"",""score"":7},{""name"":""botas"",""score"":3},{""name"":""cuerda"",""score"":5}]",-68.576381804582,-23.9324063403791
41,Kip,Sanbrook,ksanbrook14@blogger.com,Male,"[{""name"":""Fuerza"",""score"":10},{""name"":""Destreza"",""score"":10},{""name"":""Liderazgo"",""score"":1},{""name"":""Motivacion"",""score"":5},{""name"":""Conocimiento"",""score"":2}]","[{""name"":""linterna"",""score"":4},{""name"":""botas"",""score"":1},{""name"":""cuerda"",""score"":8},{""name"":""pala"",""score"":3},{""name"":""alta estatura"",""score"":8}]",-68.4161068800199,-23.7336438872615
42,Con,Pyne,cpyne15@ebay.com,Female,"[{""name"":""Fuerza"",""score"":3},{""name"":""Destreza"",""score"":5},{""name"":""Liderazgo"",""score"":2},{""name"":""Motivacion"",""score"":10},{""name"":""Conocimiento"",""score"":1}]","[{""name"":""linterna"",""score"":1}]",-67.7019931914282,-23.2865509443928
43,Donica,Hullah,dhullah16@tiny.cc,Female,"[{""name"":""Fuerza"",""score"":6},{""name"":""Destreza"",""score"":1},{""name"":""Liderazgo"",""score"":7},{""name"":""Motivacion"",""score"":9},{""name"":""Conocimiento"",""score"":1}]","[{""name"":""linterna"",""score"":6},{""name"":""botas"",""score"":4},{""name"":""cuerda"",""score"":10},{""name"":""pala"",""score"":6},{""name"":""alta estatura"",""score"":8},{""name"":""guantes"",""score"":5},{""name"":""primeros auxilios"",""score"":10},{""name"":""condicion fisica"",""score"":2},{""name"":""casco"",""score"":1}]",-69.8260058598543,-22.1069545671773
44,Jeane,Thurlbeck,jthurlbeck17@washington.edu,Female,"[{""name"":""Fuerza"",""score"":10},{""name"":""Destreza"",""score"":10},{""name"":""Liderazgo"",""score"":6},{""name"":""Motivacion"",""score"":10},{""name"":""Conocimiento"",""score"":1}]","[{""name"":""linterna"",""score"":8},{""name"":""botas"",""score"":9},{""name"":""cuerda"",""score"":8},{""name"":""pala"",""score"":8},{""name"":""alta estatura"",""score"":8},{""name"":""guantes"",""score"":9}]",-70.1164553135353,-21.8340077291513
45,Elmo,Wilcocke,ewilcocke18@g.co,Male,"[{""name"":""Fuerza"",""score"":9},{""name"":""Destreza"",""score"":2},{""name"":""Liderazgo"",""score"":10},{""name"":""Motivacion"",""score"":8},{""name"":""Conocimiento"",""score"":5}]","[{""name"":""linterna"",""score"":10},{""name"":""botas"",""score"":2},{""name"":""cuerda"",""score"":4},{""name"":""pala"",""score"":6},{""name"":""alta estatura"",""score"":4},{""name"":""guantes"",""score"":10},{""name"":""primeros auxilios"",""score"":2},{""name"":""condicion fisica"",""score"":4}]",-69.9627973542466,-21.516342465473
46,Haily,Meenan,hmeenan19@ft.com,Male,"[{""name"":""Fuerza"",""score"":5},{""name"":""Destreza"",""score"":4},{""name"":""Liderazgo"",""score"":10},{""name"":""Motivacion"",""score"":9},{""name"":""Conocimiento"",""score"":8}]","[{""name"":""linterna"",""score"":4},{""name"":""botas"",""score"":8},{""name"":""cuerda"",""score"":1}]",-69.2168311709768,-22.1924369688486
47,Carilyn,McRill,cmcrill1a@ucoz.com,Female,"[{""name"":""Fuerza"",""score"":10},{""name"":""Destreza"",""score"":5},{""name"":""Liderazgo"",""score"":7},{""name"":""Motivacion"",""score"":10},{""name"":""Conocimiento"",""score"":4}]","[{""name"":""linterna"",""score"":4},{""name"":""botas"",""score"":5},{""name"":""cuerda"",""score"":3},{""name"":""pala"",""score"":7},{""name"":""alta estatura"",""score"":1},{""name"":""guantes"",""score"":6},{""name"":""primeros auxilios"",""score"":10},{""name"":""condicion fisica"",""score"":1},{""name"":""casco"",""score"":2}]",-69.0612156321132,-21.3457060629967
48,Marena,Kynman,mkynman1b@senate.gov,Female,"[{""name"":""Fuerza"",""score"":8},{""name"":""Destreza"",""score"":5},{""name"":""Liderazgo"",""score"":1},{""name"":""Motivacion"",""score"":6},{""name"":""Conocimiento"",""score"":8}]","[{""name"":""linterna"",""score"":9},{""name"":""botas"",""score"":5}]",-69.6601076508468,-21.7441618731293
49,Maxie,Sigward,msigward1c@slashdot.org,Male,"[{""name"":""Fuerza"",""score"":6},{""name"":""Destreza"",""score"":8},{""name"":""Liderazgo"",""score"":3},{""name"":""Motivacion"",""score"":4},{""name"":""Conocimiento"",""score"":9}]","[{""name"":""linterna"",""score"":10},{""name"":""botas"",""score"":10},{""name"":""cuerda"",""score"":7}]",-70.3296843832543,-27.4585968942084
50,Esther,Penhaligon,epenhaligon1d@addtoany.com,Female,"[{""name"":""Fuerza"",""score"":4},{""name"":""Destreza"",""score"":9},{""name"":""Liderazgo"",""score"":6},{""name"":""Motivacion"",""score"":7},{""name"":""Conocimiento"",""score"":6}]","[{""name"":""linterna"",""score"":8},{""name"":""botas"",""score"":9},{""name"":""cuerda"",""score"":4}]",-69.0177482693851,-26.9161928976156
51,Cord,Hirtz,chirtz1e@homestead.com,Male,"[{""name"":""Fuerza"",""score"":6},{""name"":""Destreza"",""score"":7},{""name"":""Liderazgo"",""score"":9},{""name"":""Motivacion"",""score"":8},{""name"":""Conocimiento"",""score"":2}]","[{""name"":""linterna"",""score"":10},{""name"":""botas"",""score"":3},{""name"":""cuerda"",""score"":5},{""name"":""pala"",""score"":2},{""name"":""alta estatura"",""score"":9},{""name"":""guantes"",""score"":7},{""name"":""primeros auxilios"",""score"":8},{""name"":""condicion fisica"",""score"":2},{""name"":""casco"",""score"":2}]",-68.9820545877913,-27.1908597595752
52,Clive,Dawe,cdawe1f@odnoklassniki.ru,Male,"[{""name"":""Fuerza"",""score"":10},{""name"":""Destreza"",""score"":4},{""name"":""Liderazgo"",""score"":1},{""name"":""Motivacion"",""score"":7},{""name"":""Conocimiento"",""score"":7}]","[{""name"":""linterna"",""score"":1},{""name"":""botas"",""score"":7},{""name"":""cuerda"",""score"":4}]",-70.6186124819186,-27.0324034351545
53,Bordy,Lintott,blintott1g@google.es,Male,"[{""name"":""Fuerza"",""score"":4},{""name"":""Destreza"",""score"":1},{""name"":""Liderazgo"",""score"":9},{""name"":""Motivacion"",""score"":7},{""name"":""Conocimiento"",""score"":3}]","[{""name"":""linterna"",""score"":6},{""name"":""botas"",""score"":6},{""name"":""cuerda"",""score"":10},{""name"":""pala"",""score"":10},{""name"":""alta estatura"",""score"":8},{""name"":""guantes"",""score"":4},{""name"":""primeros auxilios"",""score"":7},{""name"":""condicion fisica"",""score"":10},{""name"":""casco"",""score"":6}]",-70.8879179121996,-27.3335105575575
54,Marlene,Habbijam,mhabbijam1h@furl.net,Female,"[{""name"":""Fuerza"",""score"":10},{""name"":""Destreza"",""score"":4},{""name"":""Liderazgo"",""score"":7},{""name"":""Motivacion"",""score"":2},{""name"":""Conocimiento"",""score"":4}]","[{""name"":""linterna"",""score"":3},{""name"":""botas"",""score"":9},{""name"":""cuerda"",""score"":2},{""name"":""pala"",""score"":4},{""name"":""alta estatura"",""score"":3},{""name"":""guantes"",""score"":6},{""name"":""primeros auxilios"",""score"":4},{""name"":""condicion fisica"",""score"":5}]",-70.8635469872722,-27.2455799852115
55,Freida,Outhwaite,fouthwaite1i@fema.gov,Female,"[{""name"":""Fuerza"",""score"":6},{""name"":""Destreza"",""score"":6},{""name"":""Liderazgo"",""score"":8},{""name"":""Motivacion"",""score"":3},{""name"":""Conocimiento"",""score"":3}]","[{""name"":""linterna"",""score"":9},{""name"":""botas"",""score"":10},{""name"":""cuerda"",""score"":10},{""name"":""pala"",""score"":4},{""name"":""alta estatura"",""score"":3}]",-69.0630536838495,-27.6140537617791
56,Rosamund,Outright,routright1j@cocolog-nifty.com,Female,"[{""name"":""Fuerza"",""score"":3},{""name"":""Destreza"",""score"":8},{""name"":""Liderazgo"",""score"":3},{""name"":""Motivacion"",""score"":9},{""name"":""Conocimiento"",""score"":2}]","[{""name"":""linterna"",""score"":7},{""name"":""botas"",""score"":1},{""name"":""cuerda"",""score"":3},{""name"":""pala"",""score"":9},{""name"":""alta estatura"",""score"":5},{""name"":""guantes"",""score"":6},{""name"":""primeros auxilios"",""score"":6},{""name"":""condicion fisica"",""score"":10},{""name"":""casco"",""score"":8}]",-69.6417383027048,-27.8143991873273
57,Annalise,Prantl,aprantl1k@google.com.au,Female,"[{""name"":""Fuerza"",""score"":1},{""name"":""Destreza"",""score"":4},{""name"":""Liderazgo"",""score"":8},{""name"":""Motivacion"",""score"":3},{""name"":""Conocimiento"",""score"":4}]","[{""name"":""linterna"",""score"":6},{""name"":""botas"",""score"":7},{""name"":""cuerda"",""score"":2},{""name"":""pala"",""score"":9},{""name"":""alta estatura"",""score"":10},{""name"":""guantes"",""score"":4},{""name"":""primeros auxilios"",""score"":5},{""name"":""condicion fisica"",""score"":2}]",-70.2799500885564,-27.6602359175484
58,Natalya,Dodswell,ndodswell1l@naver.com,Female,"[{""name"":""Fuerza"",""score"":6},{""name"":""Destreza"",""score"":8},{""name"":""Liderazgo"",""score"":7},{""name"":""Motivacion"",""score"":9},{""name"":""Conocimiento"",""score"":7}]","[{""name"":""linterna"",""score"":9},{""name"":""botas"",""score"":8},{""name"":""cuerda"",""score"":8},{""name"":""pala"",""score"":4}]",-70.2865426123207,-26.233351913348
59,Hyacintha,Lakenden,hlakenden1m@usa.gov,Female,"[{""name"":""Fuerza"",""score"":8},{""name"":""Destreza"",""score"":6},{""name"":""Liderazgo"",""score"":9},{""name"":""Motivacion"",""score"":2},{""name"":""Conocimiento"",""score"":6}]","[{""name"":""linterna"",""score"":6},{""name"":""botas"",""score"":1},{""name"":""cuerda"",""score"":5},{""name"":""pala"",""score"":8},{""name"":""alta estatura"",""score"":3},{""name"":""guantes"",""score"":5},{""name"":""primeros auxilios"",""score"":7}]",-70.2454350452411,-26.7261417334753
60,Maurene,Gellert,mgellert1n@cnbc.com,Female,"[{""name"":""Fuerza"",""score"":6},{""name"":""Destreza"",""score"":8},{""name"":""Liderazgo"",""score"":8},{""name"":""Motivacion"",""score"":4},{""name"":""Conocimiento"",""score"":8}]","[{""name"":""linterna"",""score"":2},{""name"":""botas"",""score"":7},{""name"":""cuerda"",""score"":6},{""name"":""pala"",""score"":4},{""name"":""alta estatura"",""score"":5},{""name"":""guantes"",""score"":4},{""name"":""primeros auxilios"",""score"":7},{""name"":""condicion fisica"",""score"":8}]",-70.2973906478465,-26.8514995593117
61,Merrill,Dranfield,mdranfield1o@xinhuanet.com,Female,"[{""name"":""Fuerza"",""score"":4},{""name"":""Destreza"",""score"":9},{""name"":""Liderazgo"",""score"":3},{""name"":""Motivacion"",""score"":3},{""name"":""Conocimiento"",""score"":10}]","[{""name"":""linterna"",""score"":9},{""name"":""botas"",""score"":5},{""name"":""cuerda"",""score"":9},{""name"":""pala"",""score"":10},{""name"":""alta estatura"",""score"":7},{""name"":""guantes"",""score"":1},{""name"":""primeros auxilios"",""score"":4},{""name"":""condicion fisica"",""score"":10},{""name"":""casco"",""score"":3}]",-70.1510571724786,-26.3868851666705
62,Judd,Rentoll,jrentoll1p@technorati.com,Male,"[{""name"":""Fuerza"",""score"":1},{""name"":""Destreza"",""score"":3},{""name"":""Liderazgo"",""score"":1},{""name"":""Motivacion"",""score"":7},{""name"":""Conocimiento"",""score"":10}]","[{""name"":""linterna"",""score"":7},{""name"":""botas"",""score"":5},{""name"":""cuerda"",""score"":5},{""name"":""pala"",""score"":3},{""name"":""alta estatura"",""score"":6},{""name"":""guantes"",""score"":9},{""name"":""primeros auxilios"",""score"":8},{""name"":""condicion fisica"",""score"":10}]",-69.8867736217933,-26.277462516874
63,Iolanthe,Pexton,ipexton1q@biblegateway.com,Female,"[{""name"":""Fuerza"",""score"":7},{""name"":""Destreza"",""score"":2},{""name"":""Liderazgo"",""score"":8},{""name"":""Motivacion"",""score"":7},{""name"":""Conocimiento"",""score"":3}]","[{""name"":""linterna"",""score"":5},{""name"":""botas"",""score"":5},{""name"":""cuerda"",""score"":1},{""name"":""pala"",""score"":7},{""name"":""alta estatura"",""score"":7},{""name"":""guantes"",""score"":7},{""name"":""primeros auxilios"",""score"":8},{""name"":""condicion fisica"",""score"":4},{""name"":""casco"",""score"":8}]",-68.5512921752836,-25.3865481111081
64,Sigfrid,Oehm,soehm1r@infoseek.co.jp,Male,"[{""name"":""Fuerza"",""score"":6},{""name"":""Destreza"",""score"":2},{""name"":""Liderazgo"",""score"":3},{""name"":""Motivacion"",""score"":10},{""name"":""Conocimiento"",""score"":8}]","[{""name"":""linterna"",""score"":3},{""name"":""botas"",""score"":6},{""name"":""cuerda"",""score"":1},{""name"":""pala"",""score"":2},{""name"":""alta estatura"",""score"":5},{""name"":""guantes"",""score"":2}]",-70.3688081770495,-28.3549575695518
65,Hetty,Drake,hdrake1s@craigslist.org,Female,"[{""name"":""Fuerza"",""score"":3},{""name"":""Destreza"",""score"":10},{""name"":""Liderazgo"",""score"":3},{""name"":""Motivacion"",""score"":10},{""name"":""Conocimiento"",""score"":4}]","[{""name"":""linterna"",""score"":1},{""name"":""botas"",""score"":10},{""name"":""cuerda"",""score"":3}]",-70.7526499673409,-28.844489161888
66,Forster,Nehls,fnehls1t@homestead.com,Male,"[{""name"":""Fuerza"",""score"":8},{""name"":""Destreza"",""score"":7},{""name"":""Liderazgo"",""score"":9},{""name"":""Motivacion"",""score"":9},{""name"":""Conocimiento"",""score"":5}]","[{""name"":""linterna"",""score"":6}]",-70.2406703751765,-28.5704271538995
67,Artemas,D'Orsay,adorsay1u@smh.com.au,Male,"[{""name"":""Fuerza"",""score"":2},{""name"":""Destreza"",""score"":9},{""name"":""Liderazgo"",""score"":1},{""name"":""Motivacion"",""score"":8},{""name"":""Conocimiento"",""score"":8}]","[{""name"":""linterna"",""score"":10},{""name"":""botas"",""score"":7},{""name"":""cuerda"",""score"":8},{""name"":""pala"",""score"":8},{""name"":""alta estatura"",""score"":2},{""name"":""guantes"",""score"":6},{""name"":""primeros auxilios"",""score"":7}]",-70.1935048455151,-29.2804234339587
68,Sidonnie,Fildes,sfildes1v@timesonline.co.uk,Female,"[{""name"":""Fuerza"",""score"":6},{""name"":""Destreza"",""score"":6},{""name"":""Liderazgo"",""score"":9},{""name"":""Motivacion"",""score"":8},{""name"":""Conocimiento"",""score"":3}]","[{""name"":""linterna"",""score"":4},{""name"":""botas"",""score"":6},{""name"":""cuerda"",""score"":6},{""name"":""pala"",""score"":4},{""name"":""alta estatura"",""score"":1},{""name"":""guantes"",""score"":10},{""name"":""primeros auxilios"",""score"":7}]",-70.2811474811271,-29.315883118525
69,Myrtie,Stainer,mstainer1w@t-online.de,Female,"[{""name"":""Fuerza"",""score"":2},{""name"":""Destreza"",""score"":6},{""name"":""Liderazgo"",""score"":1},{""name"":""Motivacion"",""score"":6},{""name"":""Conocimiento"",""score"":5}]","[{""name"":""linterna"",""score"":7},{""name"":""botas"",""score"":3},{""name"":""cuerda"",""score"":5}]",-70.1984600696183,-28.6304051914145
70,Carlynne,Schwaiger,cschwaiger1x@paginegialle.it,Female,"[{""name"":""Fuerza"",""score"":10},{""name"":""Destreza"",""score"":6},{""name"":""Liderazgo"",""score"":5},{""name"":""Motivacion"",""score"":8},{""name"":""Conocimiento"",""score"":10}]","[{""name"":""linterna"",""score"":1}]",-71.1668367891623,-29.1311568550481
71,Adan,Hallgath,ahallgath1y@jugem.jp,Male,"[{""name"":""Fuerza"",""score"":6},{""name"":""Destreza"",""score"":2},{""name"":""Liderazgo"",""score"":1},{""name"":""Motivacion"",""score"":2},{""name"":""Conocimiento"",""score"":5}]","[{""name"":""linterna"",""score"":6},{""name"":""botas"",""score"":3},{""name"":""cuerda"",""score"":6},{""name"":""pala"",""score"":7},{""name"":""alta estatura"",""score"":3},{""name"":""guantes"",""score"":8},{""name"":""primeros auxilios"",""score"":3}]",-71.3076390444792,-29.1277618126214
72,Teodor,Dinzey,tdinzey1z@edublogs.org,Male,"[{""name"":""Fuerza"",""score"":2},{""name"":""Destreza"",""score"":6},{""name"":""Liderazgo"",""score"":8},{""name"":""Motivacion"",""score"":3},{""name"":""Conocimiento"",""score"":10}]","[{""name"":""linterna"",""score"":4},{""name"":""botas"",""score"":3},{""name"":""cuerda"",""score"":4},{""name"":""pala"",""score"":10},{""name"":""alta estatura"",""score"":7},{""name"":""guantes"",""score"":10}]",-71.0449724352433,-28.5863489329575
73,Tammi,Leftridge,tleftridge20@ucoz.com,Female,"[{""name"":""Fuerza"",""score"":1},{""name"":""Destreza"",""score"":9},{""name"":""Liderazgo"",""score"":3},{""name"":""Motivacion"",""score"":7},{""name"":""Conocimiento"",""score"":4}]","[{""name"":""linterna"",""score"":2},{""name"":""botas"",""score"":8},{""name"":""cuerda"",""score"":5},{""name"":""pala"",""score"":10},{""name"":""alta estatura"",""score"":9},{""name"":""guantes"",""score"":2},{""name"":""primeros auxilios"",""score"":2}]",-70.8208232547093,-28.2370463433832
74,Dorene,Ellif,dellif21@huffingtonpost.com,Female,"[{""name"":""Fuerza"",""score"":7},{""name"":""Destreza"",""score"":9},{""name"":""Liderazgo"",""score"":9},{""name"":""Motivacion"",""score"":10},{""name"":""Conocimiento"",""score"":2}]","[{""name"":""linterna"",""score"":10}]",-71.1415142508672,-28.1459447418787
75,Pincas,Martineau,pmartineau22@adobe.com,Male,"[{""name"":""Fuerza"",""score"":6},{""name"":""Destreza"",""score"":5},{""name"":""Liderazgo"",""score"":2},{""name"":""Motivacion"",""score"":5},{""name"":""Conocimiento"",""score"":7}]","[{""name"":""linterna"",""score"":3},{""name"":""botas"",""score"":8},{""name"":""cuerda"",""score"":7},{""name"":""pala"",""score"":9},{""name"":""alta estatura"",""score"":1},{""name"":""guantes"",""score"":2},{""name"":""primeros auxilios"",""score"":6}]",-71.1218636353483,-28.1106584075568
76,Percy,Dressel,pdressel23@miibeian.gov.cn,Male,"[{""name"":""Fuerza"",""score"":9},{""name"":""Destreza"",""score"":9},{""name"":""Liderazgo"",""score"":9},{""name"":""Motivacion"",""score"":5},{""name"":""Conocimiento"",""score"":5}]","[{""name"":""linterna"",""score"":2},{""name"":""botas"",""score"":8}]",-71.2380925362844,-29.7665745049008
77,Cecil,Spore,cspore24@1und1.de,Male,"[{""name"":""Fuerza"",""score"":6},{""name"":""Destreza"",""score"":3},{""name"":""Liderazgo"",""score"":3},{""name"":""Motivacion"",""score"":7},{""name"":""Conocimiento"",""score"":3}]","[{""name"":""linterna"",""score"":4}]",-70.9883455087712,-29.6269480303796
78,Abbey,Edland,aedland25@redcross.org,Male,"[{""name"":""Fuerza"",""score"":9},{""name"":""Destreza"",""score"":3},{""name"":""Liderazgo"",""score"":10},{""name"":""Motivacion"",""score"":2},{""name"":""Conocimiento"",""score"":4}]","[{""name"":""linterna"",""score"":1},{""name"":""botas"",""score"":6},{""name"":""cuerda"",""score"":8},{""name"":""pala"",""score"":4}]",-71.0803276417676,-29.7831113610666
79,Lorne,Jewiss,ljewiss26@a8.net,Female,"[{""name"":""Fuerza"",""score"":6},{""name"":""Destreza"",""score"":8},{""name"":""Liderazgo"",""score"":10},{""name"":""Motivacion"",""score"":9},{""name"":""Conocimiento"",""score"":8}]","[{""name"":""linterna"",""score"":8}]",-71.3927035063526,-30.1962219109587
80,Tony,Worsom,tworsom27@reference.com,Male,"[{""name"":""Fuerza"",""score"":4},{""name"":""Destreza"",""score"":10},{""name"":""Liderazgo"",""score"":1},{""name"":""Motivacion"",""score"":5},{""name"":""Conocimiento"",""score"":3}]","[{""name"":""linterna"",""score"":4},{""name"":""botas"",""score"":3},{""name"":""cuerda"",""score"":10},{""name"":""pala"",""score"":7}]",-71.5502515235677,-30.3260343191903
81,Perkin,Pilsworth,ppilsworth28@elpais.com,Male,"[{""name"":""Fuerza"",""score"":10},{""name"":""Destreza"",""score"":2},{""name"":""Liderazgo"",""score"":5},{""name"":""Motivacion"",""score"":5},{""name"":""Conocimiento"",""score"":7}]","[{""name"":""linterna"",""score"":10},{""name"":""botas"",""score"":8},{""name"":""cuerda"",""score"":3},{""name"":""pala"",""score"":4}]",-71.3921062366543,-29.9982940160371
82,Link,Roulston,lroulston29@weibo.com,Male,"[{""name"":""Fuerza"",""score"":10},{""name"":""Destreza"",""score"":10},{""name"":""Liderazgo"",""score"":7},{""name"":""Motivacion"",""score"":7},{""name"":""Conocimiento"",""score"":4}]","[{""name"":""linterna"",""score"":3},{""name"":""botas"",""score"":7},{""name"":""cuerda"",""score"":10},{""name"":""pala"",""score"":3},{""name"":""alta estatura"",""score"":7},{""name"":""guantes"",""score"":3},{""name"":""primeros auxilios"",""score"":2},{""name"":""condicion fisica"",""score"":2},{""name"":""casco"",""score"":4}]",-71.0721800289111,-30.2151788011905
83,Meriel,Wearne,mwearne2a@hao123.com,Female,"[{""name"":""Fuerza"",""score"":3},{""name"":""Destreza"",""score"":7},{""name"":""Liderazgo"",""score"":8},{""name"":""Motivacion"",""score"":5},{""name"":""Conocimiento"",""score"":9}]","[{""name"":""linterna"",""score"":3},{""name"":""botas"",""score"":7},{""name"":""cuerda"",""score"":3},{""name"":""pala"",""score"":8},{""name"":""alta estatura"",""score"":7},{""name"":""guantes"",""score"":5}]",-71.0894119670337,-30.2034013673868
84,Shepperd,Jahan,sjahan2b@blogger.com,Male,"[{""name"":""Fuerza"",""score"":9},{""name"":""Destreza"",""score"":7},{""name"":""Liderazgo"",""score"":9},{""name"":""Motivacion"",""score"":9},{""name"":""Conocimiento"",""score"":5}]","[{""name"":""linterna"",""score"":2},{""name"":""botas"",""score"":8},{""name"":""cuerda"",""score"":3},{""name"":""pala"",""score"":7},{""name"":""alta estatura"",""score"":3}]",-71.070114096659,-30.2122569350095
85,Decca,Trunkfield,dtrunkfield2c@ning.com,Male,"[{""name"":""Fuerza"",""score"":10},{""name"":""Destreza"",""score"":6},{""name"":""Liderazgo"",""score"":9},{""name"":""Motivacion"",""score"":9},{""name"":""Conocimiento"",""score"":5}]","[{""name"":""linterna"",""score"":3},{""name"":""botas"",""score"":3},{""name"":""cuerda"",""score"":8}]",-70.7068450924617,-29.1553873403291
86,Penrod,Jakov,pjakov2d@opera.com,Male,"[{""name"":""Fuerza"",""score"":4},{""name"":""Destreza"",""score"":6},{""name"":""Liderazgo"",""score"":3},{""name"":""Motivacion"",""score"":5},{""name"":""Conocimiento"",""score"":2}]","[{""name"":""linterna"",""score"":9},{""name"":""botas"",""score"":3},{""name"":""cuerda"",""score"":8},{""name"":""pala"",""score"":1},{""name"":""alta estatura"",""score"":9},{""name"":""guantes"",""score"":4},{""name"":""primeros auxilios"",""score"":5},{""name"":""condicion fisica"",""score"":10}]",-70.6179477575569,-29.3101717907049
87,Bobette,Thackham,bthackham2e@msn.com,Female,"[{""name"":""Fuerza"",""score"":2},{""name"":""Destreza"",""score"":9},{""name"":""Liderazgo"",""score"":4},{""name"":""Motivacion"",""score"":1},{""name"":""Conocimiento"",""score"":10}]","[{""name"":""linterna"",""score"":6},{""name"":""botas"",""score"":3},{""name"":""cuerda"",""score"":10},{""name"":""pala"",""score"":4},{""name"":""alta estatura"",""score"":1},{""name"":""guantes"",""score"":9},{""name"":""primeros auxilios"",""score"":2},{""name"":""condicion fisica"",""score"":3}]",-70.879066043024,-29.3540197903298
88,Estevan,Norridge,enorridge2f@discovery.com,Male,"[{""name"":""Fuerza"",""score"":5},{""name"":""Destreza"",""score"":5},{""name"":""Liderazgo"",""score"":2},{""name"":""Motivacion"",""score"":1},{""name"":""Conocimiento"",""score"":4}]","[{""name"":""linterna"",""score"":2}]",-70.4104719163283,-30.0846661145189
89,Salim,Clague,sclague2g@google.de,Male,"[{""name"":""Fuerza"",""score"":2},{""name"":""Destreza"",""score"":9},{""name"":""Liderazgo"",""score"":6},{""name"":""Motivacion"",""score"":2},{""name"":""Conocimiento"",""score"":5}]","[{""name"":""linterna"",""score"":6},{""name"":""botas"",""score"":7},{""name"":""cuerda"",""score"":8}]",-70.3235310626972,-30.3462776182248
90,Brandi,Wakenshaw,bwakenshaw2h@adobe.com,Female,"[{""name"":""Fuerza"",""score"":5},{""name"":""Destreza"",""score"":3},{""name"":""Liderazgo"",""score"":8},{""name"":""Motivacion"",""score"":3},{""name"":""Conocimiento"",""score"":3}]","[{""name"":""linterna"",""score"":5},{""name"":""botas"",""score"":6},{""name"":""cuerda"",""score"":9},{""name"":""pala"",""score"":3},{""name"":""alta estatura"",""score"":5},{""name"":""guantes"",""score"":1},{""name"":""primeros auxilios"",""score"":5}]",-70.3898936380358,-30.0177966722995
91,Alexander,Porcher,aporcher2i@hugedomains.com,Male,"[{""name"":""Fuerza"",""score"":2},{""name"":""Destreza"",""score"":9},{""name"":""Liderazgo"",""score"":1},{""name"":""Motivacion"",""score"":9},{""name"":""Conocimiento"",""score"":4}]","[{""name"":""linterna"",""score"":1},{""name"":""botas"",""score"":4},{""name"":""cuerda"",""score"":10},{""name"":""pala"",""score"":4}]",-70.671949001224,-29.8985022994233
92,Bayard,Padrick,bpadrick2j@weibo.com,Male,"[{""name"":""Fuerza"",""score"":1},{""name"":""Destreza"",""score"":6},{""name"":""Liderazgo"",""score"":4},{""name"":""Motivacion"",""score"":10},{""name"":""Conocimiento"",""score"":5}]","[{""name"":""linterna"",""score"":3},{""name"":""botas"",""score"":9}]",-70.3789544337976,-29.6969414591747
93,Ole,Scheffel,oscheffel2k@unicef.org,Male,"[{""name"":""Fuerza"",""score"":7},{""name"":""Destreza"",""score"":5},{""name"":""Liderazgo"",""score"":7},{""name"":""Motivacion"",""score"":5},{""name"":""Conocimiento"",""score"":4}]","[{""name"":""linterna"",""score"":4},{""name"":""botas"",""score"":9},{""name"":""cuerda"",""score"":8},{""name"":""pala"",""score"":8},{""name"":""alta estatura"",""score"":3}]",-70.0617087830759,-29.6843427707088
94,Pavel,Livard,plivard2l@networksolutions.com,Male,"[{""name"":""Fuerza"",""score"":1},{""name"":""Destreza"",""score"":7},{""name"":""Liderazgo"",""score"":10},{""name"":""Motivacion"",""score"":1},{""name"":""Conocimiento"",""score"":9}]","[{""name"":""linterna"",""score"":3},{""name"":""botas"",""score"":1},{""name"":""cuerda"",""score"":8},{""name"":""pala"",""score"":4},{""name"":""alta estatura"",""score"":5},{""name"":""guantes"",""score"":4},{""name"":""primeros auxilios"",""score"":5}]",-71.1683667794431,-31.6921168766856
95,Ardith,Mee,amee2m@techcrunch.com,Female,"[{""name"":""Fuerza"",""score"":1},{""name"":""Destreza"",""score"":1},{""name"":""Liderazgo"",""score"":1},{""name"":""Motivacion"",""score"":6},{""name"":""Conocimiento"",""score"":9}]","[{""name"":""linterna"",""score"":4},{""name"":""botas"",""score"":10},{""name"":""cuerda"",""score"":9},{""name"":""pala"",""score"":2},{""name"":""alta estatura"",""score"":2},{""name"":""guantes"",""score"":1},{""name"":""primeros auxilios"",""score"":7},{""name"":""condicion fisica"",""score"":6}]",-70.9211166458406,-31.3705032417471
96,Hayes,Melloi,hmelloi2n@arstechnica.com,Male,"[{""name"":""Fuerza"",""score"":9},{""name"":""Destreza"",""score"":6},{""name"":""Liderazgo"",""score"":10},{""name"":""Motivacion"",""score"":3},{""name"":""Conocimiento"",""score"":3}]","[{""name"":""linterna"",""score"":3},{""name"":""botas"",""score"":1},{""name"":""cuerda"",""score"":9},{""name"":""pala"",""score"":8},{""name"":""alta estatura"",""score"":4},{""name"":""guantes"",""score"":3},{""name"":""primeros auxilios"",""score"":4},{""name"":""condicion fisica"",""score"":3},{""name"":""casco"",""score"":8}]",-70.9685973169541,-31.4111460351098
97,Arlene,Punt,apunt2o@fc2.com,Female,"[{""name"":""Fuerza"",""score"":8},{""name"":""Destreza"",""score"":3},{""name"":""Liderazgo"",""score"":8},{""name"":""Motivacion"",""score"":5},{""name"":""Conocimiento"",""score"":3}]","[{""name"":""linterna"",""score"":3}]",-71.4652564622405,-31.4691193230171
98,Egor,Isaq,eisaq2p@harvard.edu,Male,"[{""name"":""Fuerza"",""score"":5},{""name"":""Destreza"",""score"":10},{""name"":""Liderazgo"",""score"":2},{""name"":""Motivacion"",""score"":2},{""name"":""Conocimiento"",""score"":2}]","[{""name"":""linterna"",""score"":7},{""name"":""botas"",""score"":3},{""name"":""cuerda"",""score"":3},{""name"":""pala"",""score"":10},{""name"":""alta estatura"",""score"":2},{""name"":""guantes"",""score"":2},{""name"":""primeros auxilios"",""score"":5},{""name"":""condicion fisica"",""score"":2}]",-71.5970030697364,-31.253376829326
99,Stanton,McCathay,smccathay2q@unicef.org,Male,"[{""name"":""Fuerza"",""score"":10},{""name"":""Destreza"",""score"":8},{""name"":""Liderazgo"",""score"":3},{""name"":""Motivacion"",""score"":5},{""name"":""Conocimiento"",""score"":3}]","[{""name"":""linterna"",""score"":5},{""name"":""botas"",""score"":1},{""name"":""cuerda"",""score"":3},{""name"":""pala"",""score"":7}]",-71.6211579186477,-31.2521157277325
100,Durante,Petracek,dpetracek2r@theguardian.com,Male,"[{""name"":""Fuerza"",""score"":2},{""name"":""Destreza"",""score"":4},{""name"":""Liderazgo"",""score"":2},{""name"":""Motivacion"",""score"":3},{""name"":""Conocimiento"",""score"":1}]","[{""name"":""linterna"",""score"":2},{""name"":""botas"",""score"":3},{""name"":""cuerda"",""score"":9},{""name"":""pala"",""score"":8}]",-71.0909510848322,-32.0895578322337
101,Judie,Ogborne,jogborne2s@tiny.cc,Female,"[{""name"":""Fuerza"",""score"":1},{""name"":""Destreza"",""score"":6},{""name"":""Liderazgo"",""score"":4},{""name"":""Motivacion"",""score"":7},{""name"":""Conocimiento"",""score"":5}]","[{""name"":""linterna"",""score"":1},{""name"":""botas"",""score"":3},{""name"":""cuerda"",""score"":2},{""name"":""pala"",""score"":10},{""name"":""alta estatura"",""score"":1},{""name"":""guantes"",""score"":5},{""name"":""primeros auxilios"",""score"":4}]",-71.1747672013981,-32.1297813059118
102,Fremont,Weale,fweale2t@archive.org,Male,"[{""name"":""Fuerza"",""score"":5},{""name"":""Destreza"",""score"":1},{""name"":""Liderazgo"",""score"":7},{""name"":""Motivacion"",""score"":2},{""name"":""Conocimiento"",""score"":7}]","[{""name"":""linterna"",""score"":3},{""name"":""botas"",""score"":3},{""name"":""cuerda"",""score"":4},{""name"":""pala"",""score"":9}]",-71.1940302886683,-32.1399558830576
103,Rachel,Le Brun,rlebrun2u@cyberchimps.com,Female,"[{""name"":""Fuerza"",""score"":2},{""name"":""Destreza"",""score"":10},{""name"":""Liderazgo"",""score"":4},{""name"":""Motivacion"",""score"":5},{""name"":""Conocimiento"",""score"":10}]","[{""name"":""linterna"",""score"":2},{""name"":""botas"",""score"":6},{""name"":""cuerda"",""score"":10},{""name"":""pala"",""score"":6},{""name"":""alta estatura"",""score"":7}]",-70.8371471965294,-31.8720245100018
104,Agna,Meritt,ameritt2v@nbcnews.com,Female,"[{""name"":""Fuerza"",""score"":2},{""name"":""Destreza"",""score"":2},{""name"":""Liderazgo"",""score"":8},{""name"":""Motivacion"",""score"":9},{""name"":""Conocimiento"",""score"":9}]","[{""name"":""linterna"",""score"":10},{""name"":""botas"",""score"":8}]",-70.6733381320311,-31.835313890548
105,Winfred,Grimditch,wgrimditch2w@chicagotribune.com,Male,"[{""name"":""Fuerza"",""score"":8},{""name"":""Destreza"",""score"":2},{""name"":""Liderazgo"",""score"":1},{""name"":""Motivacion"",""score"":2},{""name"":""Conocimiento"",""score"":9}]","[{""name"":""linterna"",""score"":2},{""name"":""botas"",""score"":9},{""name"":""cuerda"",""score"":10}]",-70.4109771044048,-32.1762369952738
106,Gwenni,Tolussi,gtolussi2x@wunderground.com,Female,"[{""name"":""Fuerza"",""score"":1},{""name"":""Destreza"",""score"":10},{""name"":""Liderazgo"",""score"":3},{""name"":""Motivacion"",""score"":8},{""name"":""Conocimiento"",""score"":3}]","[{""name"":""linterna"",""score"":6},{""name"":""botas"",""score"":3},{""name"":""cuerda"",""score"":5},{""name"":""pala"",""score"":1},{""name"":""alta estatura"",""score"":7},{""name"":""guantes"",""score"":2},{""name"":""primeros auxilios"",""score"":3}]",-71.6875749179703,-30.5041432275279
107,Iggy,Stoller,istoller2y@ovh.net,Male,"[{""name"":""Fuerza"",""score"":4},{""name"":""Destreza"",""score"":2},{""name"":""Liderazgo"",""score"":9},{""name"":""Motivacion"",""score"":10},{""name"":""Conocimiento"",""score"":3}]","[{""name"":""linterna"",""score"":3}]",-71.2383681898254,-30.6283942299578
108,Gerri,Tabbernor,gtabbernor2z@multiply.com,Female,"[{""name"":""Fuerza"",""score"":8},{""name"":""Destreza"",""score"":9},{""name"":""Liderazgo"",""score"":2},{""name"":""Motivacion"",""score"":9},{""name"":""Conocimiento"",""score"":4}]","[{""name"":""linterna"",""score"":10},{""name"":""botas"",""score"":5},{""name"":""cuerda"",""score"":1},{""name"":""pala"",""score"":10},{""name"":""alta estatura"",""score"":8},{""name"":""guantes"",""score"":5},{""name"":""primeros auxilios"",""score"":4},{""name"":""condicion fisica"",""score"":1}]",-71.2306088271278,-30.5190495904562
109,Bibbye,McGinnis,bmcginnis30@tuttocitta.it,Female,"[{""name"":""Fuerza"",""score"":5},{""name"":""Destreza"",""score"":10},{""name"":""Liderazgo"",""score"":1},{""name"":""Motivacion"",""score"":10},{""name"":""Conocimiento"",""score"":10}]","[{""name"":""linterna"",""score"":9},{""name"":""botas"",""score"":2},{""name"":""cuerda"",""score"":2},{""name"":""pala"",""score"":10},{""name"":""alta estatura"",""score"":9}]",-71.2146211528399,-30.9283697900796
110,Huey,Pigot,hpigot31@theatlantic.com,Male,"[{""name"":""Fuerza"",""score"":4},{""name"":""Destreza"",""score"":1},{""name"":""Liderazgo"",""score"":8},{""name"":""Motivacion"",""score"":7},{""name"":""Conocimiento"",""score"":9}]","[{""name"":""linterna"",""score"":5},{""name"":""botas"",""score"":5},{""name"":""cuerda"",""score"":9},{""name"":""pala"",""score"":7},{""name"":""alta estatura"",""score"":8},{""name"":""guantes"",""score"":3},{""name"":""primeros auxilios"",""score"":1},{""name"":""condicion fisica"",""score"":1},{""name"":""casco"",""score"":2}]",-71.0601868719873,-31.3616785727751
111,Kipp,Mulvey,kmulvey32@opensource.org,Male,"[{""name"":""Fuerza"",""score"":7},{""name"":""Destreza"",""score"":9},{""name"":""Liderazgo"",""score"":5},{""name"":""Motivacion"",""score"":9},{""name"":""Conocimiento"",""score"":2}]","[{""name"":""linterna"",""score"":1},{""name"":""botas"",""score"":4},{""name"":""cuerda"",""score"":4},{""name"":""pala"",""score"":3},{""name"":""alta estatura"",""score"":3},{""name"":""guantes"",""score"":2}]",-70.9178314719609,-31.2879057981642
112,Sampson,Cawthorne,scawthorne33@vinaora.com,Male,"[{""name"":""Fuerza"",""score"":10},{""name"":""Destreza"",""score"":7},{""name"":""Liderazgo"",""score"":7},{""name"":""Motivacion"",""score"":8},{""name"":""Conocimiento"",""score"":8}]","[{""name"":""linterna"",""score"":5},{""name"":""botas"",""score"":1},{""name"":""cuerda"",""score"":6},{""name"":""pala"",""score"":6},{""name"":""alta estatura"",""score"":5},{""name"":""guantes"",""score"":9},{""name"":""primeros auxilios"",""score"":2},{""name"":""condicion fisica"",""score"":4}]",-70.555680270606,-30.6809275565433
113,Shanie,Addams,saddams34@mail.ru,Female,"[{""name"":""Fuerza"",""score"":4},{""name"":""Destreza"",""score"":6},{""name"":""Liderazgo"",""score"":8},{""name"":""Motivacion"",""score"":7},{""name"":""Conocimiento"",""score"":9}]","[{""name"":""linterna"",""score"":5},{""name"":""botas"",""score"":5},{""name"":""cuerda"",""score"":7},{""name"":""pala"",""score"":1},{""name"":""alta estatura"",""score"":5},{""name"":""guantes"",""score"":6}]",-70.8165154199987,-30.7397693252983
114,Janey,Claiden,jclaiden35@nba.com,Female,"[{""name"":""Fuerza"",""score"":10},{""name"":""Destreza"",""score"":5},{""name"":""Liderazgo"",""score"":8},{""name"":""Motivacion"",""score"":7},{""name"":""Conocimiento"",""score"":2}]","[{""name"":""linterna"",""score"":4},{""name"":""botas"",""score"":3}]",-70.7683146229375,-30.8389887705178
115,Ingaborg,Mcwhinney,imcwhinney36@cnn.com,Female,"[{""name"":""Fuerza"",""score"":2},{""name"":""Destreza"",""score"":8},{""name"":""Liderazgo"",""score"":5},{""name"":""Motivacion"",""score"":7},{""name"":""Conocimiento"",""score"":6}]","[{""name"":""linterna"",""score"":1},{""name"":""botas"",""score"":2}]",-71.3291116820325,-30.9574155366003
116,Liv,Garaway,lgaraway37@trellian.com,Female,"[{""name"":""Fuerza"",""score"":1},{""name"":""Destreza"",""score"":1},{""name"":""Liderazgo"",""score"":3},{""name"":""Motivacion"",""score"":10},{""name"":""Conocimiento"",""score"":2}]","[{""name"":""linterna"",""score"":2},{""name"":""botas"",""score"":4},{""name"":""cuerda"",""score"":8},{""name"":""pala"",""score"":7},{""name"":""alta estatura"",""score"":6}]",-71.4900928075193,-31.0778299778254
117,Orlando,Epps,oepps38@soup.io,Male,"[{""name"":""Fuerza"",""score"":1},{""name"":""Destreza"",""score"":5},{""name"":""Liderazgo"",""score"":7},{""name"":""Motivacion"",""score"":10},{""name"":""Conocimiento"",""score"":10}]","[{""name"":""linterna"",""score"":9},{""name"":""botas"",""score"":4},{""name"":""cuerda"",""score"":1},{""name"":""pala"",""score"":5}]",-71.3339462633816,-31.0958106252857
118,Cull,Bardill,cbardill39@imageshack.us,Male,"[{""name"":""Fuerza"",""score"":10},{""name"":""Destreza"",""score"":9},{""name"":""Liderazgo"",""score"":3},{""name"":""Motivacion"",""score"":6},{""name"":""Conocimiento"",""score"":10}]","[{""name"":""linterna"",""score"":8},{""name"":""botas"",""score"":3},{""name"":""cuerda"",""score"":4},{""name"":""pala"",""score"":5},{""name"":""alta estatura"",""score"":4},{""name"":""guantes"",""score"":9},{""name"":""primeros auxilios"",""score"":10}]",-70.6226635857116,-30.4372854701124
119,Rayner,Dahlman,rdahlman3a@census.gov,Male,"[{""name"":""Fuerza"",""score"":2},{""name"":""Destreza"",""score"":9},{""name"":""Liderazgo"",""score"":8},{""name"":""Motivacion"",""score"":4},{""name"":""Conocimiento"",""score"":9}]","[{""name"":""linterna"",""score"":5},{""name"":""botas"",""score"":4},{""name"":""cuerda"",""score"":4},{""name"":""pala"",""score"":3},{""name"":""alta estatura"",""score"":5},{""name"":""guantes"",""score"":3},{""name"":""primeros auxilios"",""score"":9}]",-70.9292739928843,-30.487403588393
120,Bryana,Guerreru,bguerreru3b@amazon.de,Female,"[{""name"":""Fuerza"",""score"":9},{""name"":""Destreza"",""score"":8},{""name"":""Liderazgo"",""score"":3},{""name"":""Motivacion"",""score"":3},{""name"":""Conocimiento"",""score"":2}]","[{""name"":""linterna"",""score"":6},{""name"":""botas"",""score"":2},{""name"":""cuerda"",""score"":3},{""name"":""pala"",""score"":2},{""name"":""alta estatura"",""score"":4}]",-70.7618423817887,-30.4755489122276
121,Lothaire,Allder,lallder3c@walmart.com,Male,"[{""name"":""Fuerza"",""score"":6},{""name"":""Destreza"",""score"":2},{""name"":""Liderazgo"",""score"":6},{""name"":""Motivacion"",""score"":9},{""name"":""Conocimiento"",""score"":7}]","[{""name"":""linterna"",""score"":2},{""name"":""botas"",""score"":8},{""name"":""cuerda"",""score"":10},{""name"":""pala"",""score"":8},{""name"":""alta estatura"",""score"":8}]",-71.5307769024059,-33.1493795296013
122,Earlie,Immings,eimmings3d@prweb.com,Male,"[{""name"":""Fuerza"",""score"":2},{""name"":""Destreza"",""score"":4},{""name"":""Liderazgo"",""score"":6},{""name"":""Motivacion"",""score"":5},{""name"":""Conocimiento"",""score"":5}]","[{""name"":""linterna"",""score"":6},{""name"":""botas"",""score"":6},{""name"":""cuerda"",""score"":1},{""name"":""pala"",""score"":3},{""name"":""alta estatura"",""score"":3},{""name"":""guantes"",""score"":7}]",-71.6267358766455,-33.0705303356468
123,Ellsworth,Phidgin,ephidgin3e@intel.com,Male,"[{""name"":""Fuerza"",""score"":2},{""name"":""Destreza"",""score"":6},{""name"":""Liderazgo"",""score"":2},{""name"":""Motivacion"",""score"":4},{""name"":""Conocimiento"",""score"":2}]","[{""name"":""linterna"",""score"":2},{""name"":""botas"",""score"":3},{""name"":""cuerda"",""score"":9},{""name"":""pala"",""score"":1},{""name"":""alta estatura"",""score"":1},{""name"":""guantes"",""score"":10}]",-71.6060901692019,-33.0934526730462
124,Bastien,Legat,blegat3f@eventbrite.com,Male,"[{""name"":""Fuerza"",""score"":6},{""name"":""Destreza"",""score"":10},{""name"":""Liderazgo"",""score"":10},{""name"":""Motivacion"",""score"":5},{""name"":""Conocimiento"",""score"":8}]","[{""name"":""linterna"",""score"":2},{""name"":""botas"",""score"":3},{""name"":""cuerda"",""score"":2},{""name"":""pala"",""score"":3},{""name"":""alta estatura"",""score"":1}]",-71.418759236537,-33.3958034033374
125,Katee,Minkin,kminkin3g@infoseek.co.jp,Female,"[{""name"":""Fuerza"",""score"":1},{""name"":""Destreza"",""score"":8},{""name"":""Liderazgo"",""score"":7},{""name"":""Motivacion"",""score"":10},{""name"":""Conocimiento"",""score"":8}]","[{""name"":""linterna"",""score"":4},{""name"":""botas"",""score"":4}]",-71.4246970512015,-33.3198855911707
126,Hollie,Hellsdon,hhellsdon3h@addtoany.com,Female,"[{""name"":""Fuerza"",""score"":3},{""name"":""Destreza"",""score"":2},{""name"":""Liderazgo"",""score"":1},{""name"":""Motivacion"",""score"":8},{""name"":""Conocimiento"",""score"":6}]","[{""name"":""linterna"",""score"":1},{""name"":""botas"",""score"":6},{""name"":""cuerda"",""score"":4},{""name"":""pala"",""score"":7},{""name"":""alta estatura"",""score"":5},{""name"":""guantes"",""score"":4},{""name"":""primeros auxilios"",""score"":2},{""name"":""condicion fisica"",""score"":2},{""name"":""casco"",""score"":2}]",-71.2834582872024,-33.2666527634145
127,Doyle,Schneider,dschneider3i@forbes.com,Male,"[{""name"":""Fuerza"",""score"":6},{""name"":""Destreza"",""score"":3},{""name"":""Liderazgo"",""score"":1},{""name"":""Motivacion"",""score"":5},{""name"":""Conocimiento"",""score"":10}]","[{""name"":""linterna"",""score"":5},{""name"":""botas"",""score"":5},{""name"":""cuerda"",""score"":9},{""name"":""pala"",""score"":6},{""name"":""alta estatura"",""score"":1},{""name"":""guantes"",""score"":9},{""name"":""primeros auxilios"",""score"":6}]",-80.7820522114471,-33.8145685507568
128,Noland,Blanchette,nblanchette3j@ucsd.edu,Male,"[{""name"":""Fuerza"",""score"":1},{""name"":""Destreza"",""score"":9},{""name"":""Liderazgo"",""score"":10},{""name"":""Motivacion"",""score"":8},{""name"":""Conocimiento"",""score"":2}]","[{""name"":""linterna"",""score"":1},{""name"":""botas"",""score"":9},{""name"":""cuerda"",""score"":9},{""name"":""pala"",""score"":3},{""name"":""alta estatura"",""score"":4},{""name"":""guantes"",""score"":8},{""name"":""primeros auxilios"",""score"":10},{""name"":""condicion fisica"",""score"":6},{""name"":""casco"",""score"":10}]",-80.8149872539967,-33.7410273635924
129,Rosaleen,Lowy,rlowy3k@ftc.gov,Female,"[{""name"":""Fuerza"",""score"":9},{""name"":""Destreza"",""score"":5},{""name"":""Liderazgo"",""score"":4},{""name"":""Motivacion"",""score"":4},{""name"":""Conocimiento"",""score"":4}]","[{""name"":""linterna"",""score"":8},{""name"":""botas"",""score"":9},{""name"":""cuerda"",""score"":6},{""name"":""pala"",""score"":5},{""name"":""alta estatura"",""score"":4},{""name"":""guantes"",""score"":9}]",-78.7939330779361,-33.6505513102339
130,Harriette,Nutbean,hnutbean3l@rambler.ru,Female,"[{""name"":""Fuerza"",""score"":1},{""name"":""Destreza"",""score"":6},{""name"":""Liderazgo"",""score"":7},{""name"":""Motivacion"",""score"":9},{""name"":""Conocimiento"",""score"":10}]","[{""name"":""linterna"",""score"":7},{""name"":""botas"",""score"":7},{""name"":""cuerda"",""score"":7}]",-71.4446895877759,-32.6876292892348
131,Tierney,McCritichie,tmccritichie3m@jugem.jp,Female,"[{""name"":""Fuerza"",""score"":10},{""name"":""Destreza"",""score"":7},{""name"":""Liderazgo"",""score"":9},{""name"":""Motivacion"",""score"":9},{""name"":""Conocimiento"",""score"":6}]","[{""name"":""linterna"",""score"":9},{""name"":""botas"",""score"":2},{""name"":""cuerda"",""score"":2},{""name"":""pala"",""score"":7},{""name"":""alta estatura"",""score"":1},{""name"":""guantes"",""score"":3},{""name"":""primeros auxilios"",""score"":6},{""name"":""condicion fisica"",""score"":1}]",-71.4731063201756,-32.7312570332897
132,Ada,Suermeier,asuermeier3n@blog.com,Female,"[{""name"":""Fuerza"",""score"":2},{""name"":""Destreza"",""score"":10},{""name"":""Liderazgo"",""score"":4},{""name"":""Motivacion"",""score"":9},{""name"":""Conocimiento"",""score"":1}]","[{""name"":""linterna"",""score"":2},{""name"":""botas"",""score"":3},{""name"":""cuerda"",""score"":1},{""name"":""pala"",""score"":2},{""name"":""alta estatura"",""score"":2},{""name"":""guantes"",""score"":4},{""name"":""primeros auxilios"",""score"":5},{""name"":""condicion fisica"",""score"":4}]",-71.3716274010454,-32.7293718055626
133,Vasilis,Warburton,vwarburton3o@ebay.co.uk,Male,"[{""name"":""Fuerza"",""score"":2},{""name"":""Destreza"",""score"":4},{""name"":""Liderazgo"",""score"":10},{""name"":""Motivacion"",""score"":5},{""name"":""Conocimiento"",""score"":5}]","[{""name"":""linterna"",""score"":6},{""name"":""botas"",""score"":1},{""name"":""cuerda"",""score"":9}]",-71.4516830894364,-32.8741931504491
134,Genia,Layne,glayne3p@so-net.ne.jp,Female,"[{""name"":""Fuerza"",""score"":2},{""name"":""Destreza"",""score"":3},{""name"":""Liderazgo"",""score"":10},{""name"":""Motivacion"",""score"":1},{""name"":""Conocimiento"",""score"":2}]","[{""name"":""linterna"",""score"":5}]",-71.437926878922,-32.8625788249877
135,Muffin,Brixham,mbrixham3q@fastcompany.com,Male,"[{""name"":""Fuerza"",""score"":6},{""name"":""Destreza"",""score"":8},{""name"":""Liderazgo"",""score"":3},{""name"":""Motivacion"",""score"":4},{""name"":""Conocimiento"",""score"":9}]","[{""name"":""linterna"",""score"":10},{""name"":""botas"",""score"":3},{""name"":""cuerda"",""score"":8},{""name"":""pala"",""score"":3},{""name"":""alta estatura"",""score"":10},{""name"":""guantes"",""score"":5},{""name"":""primeros auxilios"",""score"":8}]",-71.5101544501711,-32.8136449824619
136,Alexandrina,Fetherby,afetherby3r@samsung.com,Female,"[{""name"":""Fuerza"",""score"":4},{""name"":""Destreza"",""score"":1},{""name"":""Liderazgo"",""score"":6},{""name"":""Motivacion"",""score"":10},{""name"":""Conocimiento"",""score"":8}]","[{""name"":""linterna"",""score"":8}]",-109.378632462408,-27.1061739709329
137,Merle,McBlain,mmcblain3s@va.gov,Female,"[{""name"":""Fuerza"",""score"":3},{""name"":""Destreza"",""score"":8},{""name"":""Liderazgo"",""score"":2},{""name"":""Motivacion"",""score"":5},{""name"":""Conocimiento"",""score"":8}]","[{""name"":""linterna"",""score"":10}]",-109.342511390674,-27.1035422775972
138,Ketty,Kellough,kkellough3t@spotify.com,Female,"[{""name"":""Fuerza"",""score"":8},{""name"":""Destreza"",""score"":1},{""name"":""Liderazgo"",""score"":3},{""name"":""Motivacion"",""score"":1},{""name"":""Conocimiento"",""score"":3}]","[{""name"":""linterna"",""score"":1},{""name"":""botas"",""score"":1},{""name"":""cuerda"",""score"":8}]",-109.446334088188,-27.1861364409725
139,Waverly,Olrenshaw,wolrenshaw3u@sakura.ne.jp,Male,"[{""name"":""Fuerza"",""score"":5},{""name"":""Destreza"",""score"":10},{""name"":""Liderazgo"",""score"":8},{""name"":""Motivacion"",""score"":9},{""name"":""Conocimiento"",""score"":10}]","[{""name"":""linterna"",""score"":6},{""name"":""botas"",""score"":8},{""name"":""cuerda"",""score"":4},{""name"":""pala"",""score"":4},{""name"":""alta estatura"",""score"":2}]",-70.2840659557513,-33.013733112202
140,Atlante,Horlock,ahorlock3v@cnbc.com,Female,"[{""name"":""Fuerza"",""score"":10},{""name"":""Destreza"",""score"":4},{""name"":""Liderazgo"",""score"":5},{""name"":""Motivacion"",""score"":10},{""name"":""Conocimiento"",""score"":4}]","[{""name"":""linterna"",""score"":1},{""name"":""botas"",""score"":8},{""name"":""cuerda"",""score"":7},{""name"":""pala"",""score"":2},{""name"":""alta estatura"",""score"":10}]",-70.3002253249953,-32.9550171401394
141,Graham,Mora,gmora3w@last.fm,Male,"[{""name"":""Fuerza"",""score"":4},{""name"":""Destreza"",""score"":1},{""name"":""Liderazgo"",""score"":4},{""name"":""Motivacion"",""score"":10},{""name"":""Conocimiento"",""score"":2}]","[{""name"":""linterna"",""score"":7},{""name"":""botas"",""score"":6}]",-70.1348051006849,-32.7703042981727
142,Randal,Follis,rfollis3x@netscape.com,Male,"[{""name"":""Fuerza"",""score"":3},{""name"":""Destreza"",""score"":9},{""name"":""Liderazgo"",""score"":8},{""name"":""Motivacion"",""score"":3},{""name"":""Conocimiento"",""score"":9}]","[{""name"":""linterna"",""score"":8},{""name"":""botas"",""score"":6},{""name"":""cuerda"",""score"":6}]",-70.580505036348,-32.9066580631924
143,Dunc,Hanigan,dhanigan3y@comsenz.com,Male,"[{""name"":""Fuerza"",""score"":4},{""name"":""Destreza"",""score"":9},{""name"":""Liderazgo"",""score"":2},{""name"":""Motivacion"",""score"":3},{""name"":""Conocimiento"",""score"":6}]","[{""name"":""linterna"",""score"":4},{""name"":""botas"",""score"":5},{""name"":""cuerda"",""score"":9},{""name"":""pala"",""score"":9},{""name"":""alta estatura"",""score"":6},{""name"":""guantes"",""score"":8},{""name"":""primeros auxilios"",""score"":3}]",-70.5395013243973,-32.8806965599809
144,Donnell,Devenny,ddevenny3z@hexun.com,Male,"[{""name"":""Fuerza"",""score"":2},{""name"":""Destreza"",""score"":6},{""name"":""Liderazgo"",""score"":9},{""name"":""Motivacion"",""score"":9},{""name"":""Conocimiento"",""score"":7}]","[{""name"":""linterna"",""score"":9},{""name"":""botas"",""score"":2},{""name"":""cuerda"",""score"":7}]",-70.5540747614956,-32.8864880801152
145,Jamesy,Arrault,jarrault40@gravatar.com,Male,"[{""name"":""Fuerza"",""score"":4},{""name"":""Destreza"",""score"":7},{""name"":""Liderazgo"",""score"":8},{""name"":""Motivacion"",""score"":2},{""name"":""Conocimiento"",""score"":1}]","[{""name"":""linterna"",""score"":2}]",-70.7191641878338,-32.8607320652218
146,Umberto,MacPike,umacpike41@elpais.com,Male,"[{""name"":""Fuerza"",""score"":5},{""name"":""Destreza"",""score"":4},{""name"":""Liderazgo"",""score"":8},{""name"":""Motivacion"",""score"":5},{""name"":""Conocimiento"",""score"":7}]","[{""name"":""linterna"",""score"":4},{""name"":""botas"",""score"":5},{""name"":""cuerda"",""score"":7},{""name"":""pala"",""score"":10},{""name"":""alta estatura"",""score"":2},{""name"":""guantes"",""score"":9},{""name"":""primeros auxilios"",""score"":3},{""name"":""condicion fisica"",""score"":1}]",-70.6797994611385,-32.8299358054509
147,Josh,Orgill,jorgill42@linkedin.com,Male,"[{""name"":""Fuerza"",""score"":5},{""name"":""Destreza"",""score"":6},{""name"":""Liderazgo"",""score"":1},{""name"":""Motivacion"",""score"":2},{""name"":""Conocimiento"",""score"":5}]","[{""name"":""linterna"",""score"":7},{""name"":""botas"",""score"":3},{""name"":""cuerda"",""score"":7},{""name"":""pala"",""score"":5}]",-70.6936349766321,-32.9144706173748
148,Joelly,Wynett,jwynett43@dmoz.org,Female,"[{""name"":""Fuerza"",""score"":7},{""name"":""Destreza"",""score"":2},{""name"":""Liderazgo"",""score"":10},{""name"":""Motivacion"",""score"":1},{""name"":""Conocimiento"",""score"":8}]","[{""name"":""linterna"",""score"":1},{""name"":""botas"",""score"":8},{""name"":""cuerda"",""score"":9},{""name"":""pala"",""score"":1},{""name"":""alta estatura"",""score"":6},{""name"":""guantes"",""score"":3}]",-70.2031787280715,-32.599949323041
149,Brooks,Nannoni,bnannoni44@slate.com,Male,"[{""name"":""Fuerza"",""score"":2},{""name"":""Destreza"",""score"":10},{""name"":""Liderazgo"",""score"":9},{""name"":""Motivacion"",""score"":3},{""name"":""Conocimiento"",""score"":2}]","[{""name"":""linterna"",""score"":1}]",-70.2602926068284,-32.8298656223677
150,Malchy,Wyld,mwyld45@ca.gov,Male,"[{""name"":""Fuerza"",""score"":9},{""name"":""Destreza"",""score"":2},{""name"":""Liderazgo"",""score"":1},{""name"":""Motivacion"",""score"":3},{""name"":""Conocimiento"",""score"":3}]","[{""name"":""linterna"",""score"":6},{""name"":""botas"",""score"":1},{""name"":""cuerda"",""score"":7},{""name"":""pala"",""score"":9},{""name"":""alta estatura"",""score"":2}]",-70.2105975782395,-32.6771330342173
151,Golda,Mattacks,gmattacks46@about.com,Female,"[{""name"":""Fuerza"",""score"":1},{""name"":""Destreza"",""score"":7},{""name"":""Liderazgo"",""score"":8},{""name"":""Motivacion"",""score"":9},{""name"":""Conocimiento"",""score"":2}]","[{""name"":""linterna"",""score"":5}]",-71.1500879958812,-32.5157877920378
152,Norry,Halleybone,nhalleybone47@omniture.com,Male,"[{""name"":""Fuerza"",""score"":6},{""name"":""Destreza"",""score"":3},{""name"":""Liderazgo"",""score"":4},{""name"":""Motivacion"",""score"":2},{""name"":""Conocimiento"",""score"":5}]","[{""name"":""linterna"",""score"":8},{""name"":""botas"",""score"":1},{""name"":""cuerda"",""score"":6},{""name"":""pala"",""score"":2},{""name"":""alta estatura"",""score"":3}]",-71.1631032412428,-32.3869238800524
153,Maurise,Arlott,marlott48@multiply.com,Male,"[{""name"":""Fuerza"",""score"":1},{""name"":""Destreza"",""score"":2},{""name"":""Liderazgo"",""score"":6},{""name"":""Motivacion"",""score"":1},{""name"":""Conocimiento"",""score"":7}]","[{""name"":""linterna"",""score"":2},{""name"":""botas"",""score"":1},{""name"":""cuerda"",""score"":9},{""name"":""pala"",""score"":4}]",-71.3233703731214,-32.2746412169536
154,Thebault,Holmyard,tholmyard49@privacy.gov.au,Male,"[{""name"":""Fuerza"",""score"":5},{""name"":""Destreza"",""score"":9},{""name"":""Liderazgo"",""score"":6},{""name"":""Motivacion"",""score"":1},{""name"":""Conocimiento"",""score"":1}]","[{""name"":""linterna"",""score"":4},{""name"":""botas"",""score"":9},{""name"":""cuerda"",""score"":10},{""name"":""pala"",""score"":7},{""name"":""alta estatura"",""score"":7},{""name"":""guantes"",""score"":5}]",-70.5792402700448,-32.3630445635413
155,Saunderson,Lortzing,slortzing4a@latimes.com,Male,"[{""name"":""Fuerza"",""score"":7},{""name"":""Destreza"",""score"":2},{""name"":""Liderazgo"",""score"":10},{""name"":""Motivacion"",""score"":4},{""name"":""Conocimiento"",""score"":6}]","[{""name"":""linterna"",""score"":3},{""name"":""botas"",""score"":9}]",-70.6882210549246,-32.3104597523176
156,Emmie,Stocking,estocking4b@vimeo.com,Female,"[{""name"":""Fuerza"",""score"":2},{""name"":""Destreza"",""score"":7},{""name"":""Liderazgo"",""score"":9},{""name"":""Motivacion"",""score"":3},{""name"":""Conocimiento"",""score"":10}]","[{""name"":""linterna"",""score"":3},{""name"":""botas"",""score"":3},{""name"":""cuerda"",""score"":10},{""name"":""pala"",""score"":3},{""name"":""alta estatura"",""score"":7},{""name"":""guantes"",""score"":10},{""name"":""primeros auxilios"",""score"":5},{""name"":""condicion fisica"",""score"":3}]",-70.7235418557128,-32.3634171578381
157,Terrill,McGraffin,tmcgraffin4c@arizona.edu,Male,"[{""name"":""Fuerza"",""score"":4},{""name"":""Destreza"",""score"":2},{""name"":""Liderazgo"",""score"":9},{""name"":""Motivacion"",""score"":2},{""name"":""Conocimiento"",""score"":4}]","[{""name"":""linterna"",""score"":1}]",-71.3566713869998,-32.4156225436572
158,Jess,Pinck,jpinck4d@networkadvertising.org,Male,"[{""name"":""Fuerza"",""score"":7},{""name"":""Destreza"",""score"":10},{""name"":""Liderazgo"",""score"":6},{""name"":""Motivacion"",""score"":5},{""name"":""Conocimiento"",""score"":9}]","[{""name"":""linterna"",""score"":6},{""name"":""botas"",""score"":9},{""name"":""cuerda"",""score"":7},{""name"":""pala"",""score"":1},{""name"":""alta estatura"",""score"":5},{""name"":""guantes"",""score"":10},{""name"":""primeros auxilios"",""score"":2},{""name"":""condicion fisica"",""score"":1}]",-71.3268269782343,-32.4459603346906
159,Marketa,Hansom,mhansom4e@macromedia.com,Female,"[{""name"":""Fuerza"",""score"":6},{""name"":""Destreza"",""score"":7},{""name"":""Liderazgo"",""score"":4},{""name"":""Motivacion"",""score"":2},{""name"":""Conocimiento"",""score"":7}]","[{""name"":""linterna"",""score"":10},{""name"":""botas"",""score"":8}]",-71.4000151214548,-32.4373163506496
160,Walton,Kid,wkid4f@mapquest.com,Male,"[{""name"":""Fuerza"",""score"":5},{""name"":""Destreza"",""score"":1},{""name"":""Liderazgo"",""score"":10},{""name"":""Motivacion"",""score"":9},{""name"":""Conocimiento"",""score"":1}]","[{""name"":""linterna"",""score"":1},{""name"":""botas"",""score"":8},{""name"":""cuerda"",""score"":7},{""name"":""pala"",""score"":7},{""name"":""alta estatura"",""score"":3},{""name"":""guantes"",""score"":7},{""name"":""primeros auxilios"",""score"":3},{""name"":""condicion fisica"",""score"":5}]",-71.0983284798972,-32.3658374797965
161,Ignaz,Shildrick,ishildrick4g@examiner.com,Male,"[{""name"":""Fuerza"",""score"":5},{""name"":""Destreza"",""score"":6},{""name"":""Liderazgo"",""score"":5},{""name"":""Motivacion"",""score"":3},{""name"":""Conocimiento"",""score"":8}]","[{""name"":""linterna"",""score"":3},{""name"":""botas"",""score"":3}]",-70.8966964308446,-32.2540199224994
162,Lawry,Dallinder,ldallinder4h@kickstarter.com,Male,"[{""name"":""Fuerza"",""score"":9},{""name"":""Destreza"",""score"":5},{""name"":""Liderazgo"",""score"":10},{""name"":""Motivacion"",""score"":1},{""name"":""Conocimiento"",""score"":2}]","[{""name"":""linterna"",""score"":3},{""name"":""botas"",""score"":2},{""name"":""cuerda"",""score"":6},{""name"":""pala"",""score"":8},{""name"":""alta estatura"",""score"":2},{""name"":""guantes"",""score"":7},{""name"":""primeros auxilios"",""score"":9}]",-70.9020843019193,-32.3206194345566
163,Marco,Showl,mshowl4i@ameblo.jp,Male,"[{""name"":""Fuerza"",""score"":3},{""name"":""Destreza"",""score"":3},{""name"":""Liderazgo"",""score"":4},{""name"":""Motivacion"",""score"":5},{""name"":""Conocimiento"",""score"":4}]","[{""name"":""linterna"",""score"":2}]",-71.3266950835134,-32.5650552862037
164,Grethel,Pearmain,gpearmain4j@who.int,Female,"[{""name"":""Fuerza"",""score"":3},{""name"":""Destreza"",""score"":4},{""name"":""Liderazgo"",""score"":1},{""name"":""Motivacion"",""score"":9},{""name"":""Conocimiento"",""score"":1}]","[{""name"":""linterna"",""score"":7},{""name"":""botas"",""score"":2},{""name"":""cuerda"",""score"":7}]",-71.2684592015198,-32.6155569802191
165,Noami,Sheaf,nsheaf4k@google.co.jp,Female,"[{""name"":""Fuerza"",""score"":1},{""name"":""Destreza"",""score"":7},{""name"":""Liderazgo"",""score"":1},{""name"":""Motivacion"",""score"":9},{""name"":""Conocimiento"",""score"":8}]","[{""name"":""linterna"",""score"":7},{""name"":""botas"",""score"":8},{""name"":""cuerda"",""score"":7},{""name"":""pala"",""score"":6},{""name"":""alta estatura"",""score"":1},{""name"":""guantes"",""score"":1},{""name"":""primeros auxilios"",""score"":1},{""name"":""condicion fisica"",""score"":6}]",-71.4266002016508,-32.5926124555915
166,Johnette,Dight,jdight4l@wired.com,Female,"[{""name"":""Fuerza"",""score"":2},{""name"":""Destreza"",""score"":6},{""name"":""Liderazgo"",""score"":5},{""name"":""Motivacion"",""score"":2},{""name"":""Conocimiento"",""score"":7}]","[{""name"":""linterna"",""score"":3},{""name"":""botas"",""score"":1},{""name"":""cuerda"",""score"":9},{""name"":""pala"",""score"":4},{""name"":""alta estatura"",""score"":6},{""name"":""guantes"",""score"":10},{""name"":""primeros auxilios"",""score"":10}]",-71.1697593166384,-32.8097023760019
167,Bartlett,Hame,bhame4m@jalbum.net,Male,"[{""name"":""Fuerza"",""score"":4},{""name"":""Destreza"",""score"":5},{""name"":""Liderazgo"",""score"":6},{""name"":""Motivacion"",""score"":6},{""name"":""Conocimiento"",""score"":7}]","[{""name"":""linterna"",""score"":2},{""name"":""botas"",""score"":4}]",-71.136040908478,-32.8517104581493
168,Pierce,Brinklow,pbrinklow4n@tmall.com,Male,"[{""name"":""Fuerza"",""score"":10},{""name"":""Destreza"",""score"":3},{""name"":""Liderazgo"",""score"":10},{""name"":""Motivacion"",""score"":8},{""name"":""Conocimiento"",""score"":8}]","[{""name"":""linterna"",""score"":3},{""name"":""botas"",""score"":8}]",-71.1184598614375,-32.7596902457397
169,Cati,Rogan,crogan4o@vk.com,Female,"[{""name"":""Fuerza"",""score"":1},{""name"":""Destreza"",""score"":8},{""name"":""Liderazgo"",""score"":9},{""name"":""Motivacion"",""score"":4},{""name"":""Conocimiento"",""score"":4}]","[{""name"":""linterna"",""score"":4},{""name"":""botas"",""score"":1},{""name"":""cuerda"",""score"":3},{""name"":""pala"",""score"":8},{""name"":""alta estatura"",""score"":9},{""name"":""guantes"",""score"":8},{""name"":""primeros auxilios"",""score"":1}]",-71.0629139362448,-32.8363123523195
170,Verney,Hewins,vhewins4p@addthis.com,Male,"[{""name"":""Fuerza"",""score"":6},{""name"":""Destreza"",""score"":7},{""name"":""Liderazgo"",""score"":5},{""name"":""Motivacion"",""score"":7},{""name"":""Conocimiento"",""score"":9}]","[{""name"":""linterna"",""score"":3},{""name"":""botas"",""score"":6},{""name"":""cuerda"",""score"":4},{""name"":""pala"",""score"":10},{""name"":""alta estatura"",""score"":10},{""name"":""guantes"",""score"":3},{""name"":""primeros auxilios"",""score"":2}]",-71.1512762722364,-32.7839688037063
171,Jerome,Worms,jworms4q@so-net.ne.jp,Male,"[{""name"":""Fuerza"",""score"":7},{""name"":""Destreza"",""score"":8},{""name"":""Liderazgo"",""score"":4},{""name"":""Motivacion"",""score"":4},{""name"":""Conocimiento"",""score"":8}]","[{""name"":""linterna"",""score"":8},{""name"":""botas"",""score"":3},{""name"":""cuerda"",""score"":4},{""name"":""pala"",""score"":2},{""name"":""alta estatura"",""score"":9},{""name"":""guantes"",""score"":7}]",-71.0201243493743,-32.8122351906711
172,Bibbye,Tarn,btarn4r@smugmug.com,Female,"[{""name"":""Fuerza"",""score"":3},{""name"":""Destreza"",""score"":4},{""name"":""Liderazgo"",""score"":10},{""name"":""Motivacion"",""score"":2},{""name"":""Conocimiento"",""score"":6}]","[{""name"":""linterna"",""score"":7},{""name"":""botas"",""score"":10},{""name"":""cuerda"",""score"":8},{""name"":""pala"",""score"":4},{""name"":""alta estatura"",""score"":10}]",-71.3081546245278,-32.8166885182159
173,Pauly,Whybray,pwhybray4s@wikimedia.org,Male,"[{""name"":""Fuerza"",""score"":8},{""name"":""Destreza"",""score"":1},{""name"":""Liderazgo"",""score"":5},{""name"":""Motivacion"",""score"":7},{""name"":""Conocimiento"",""score"":5}]","[{""name"":""linterna"",""score"":3},{""name"":""botas"",""score"":10},{""name"":""cuerda"",""score"":5},{""name"":""pala"",""score"":1},{""name"":""alta estatura"",""score"":7},{""name"":""guantes"",""score"":6},{""name"":""primeros auxilios"",""score"":9}]",-71.1843672776798,-32.8582520376373
174,Vinson,Orteaux,vorteaux4t@homestead.com,Male,"[{""name"":""Fuerza"",""score"":2},{""name"":""Destreza"",""score"":10},{""name"":""Liderazgo"",""score"":3},{""name"":""Motivacion"",""score"":8},{""name"":""Conocimiento"",""score"":3}]","[{""name"":""linterna"",""score"":2},{""name"":""botas"",""score"":3}]",-71.2181967771936,-32.8548265953561
175,Demott,Matveiko,dmatveiko4u@china.com.cn,Male,"[{""name"":""Fuerza"",""score"":4},{""name"":""Destreza"",""score"":6},{""name"":""Liderazgo"",""score"":9},{""name"":""Motivacion"",""score"":5},{""name"":""Conocimiento"",""score"":4}]","[{""name"":""linterna"",""score"":10},{""name"":""botas"",""score"":1},{""name"":""cuerda"",""score"":6},{""name"":""pala"",""score"":9},{""name"":""alta estatura"",""score"":2}]",-71.2164797824085,-32.7126584439144
176,Moe,Fordyce,mfordyce4v@ftc.gov,Male,"[{""name"":""Fuerza"",""score"":8},{""name"":""Destreza"",""score"":9},{""name"":""Liderazgo"",""score"":4},{""name"":""Motivacion"",""score"":5},{""name"":""Conocimiento"",""score"":3}]","[{""name"":""linterna"",""score"":5}]",-71.1096666156767,-32.6529203674741
177,Merle,Ferri,mferri4w@wikia.com,Female,"[{""name"":""Fuerza"",""score"":4},{""name"":""Destreza"",""score"":8},{""name"":""Liderazgo"",""score"":7},{""name"":""Motivacion"",""score"":5},{""name"":""Conocimiento"",""score"":1}]","[{""name"":""linterna"",""score"":2},{""name"":""botas"",""score"":5},{""name"":""cuerda"",""score"":2}]",-71.1664765606722,-32.7074563216829
178,Fredelia,Kirgan,fkirgan4x@eventbrite.com,Female,"[{""name"":""Fuerza"",""score"":5},{""name"":""Destreza"",""score"":8},{""name"":""Liderazgo"",""score"":5},{""name"":""Motivacion"",""score"":9},{""name"":""Conocimiento"",""score"":3}]","[{""name"":""linterna"",""score"":9},{""name"":""botas"",""score"":7},{""name"":""cuerda"",""score"":10},{""name"":""pala"",""score"":10},{""name"":""alta estatura"",""score"":7},{""name"":""guantes"",""score"":7},{""name"":""primeros auxilios"",""score"":6}]",-71.4461178524135,-33.632944969242
179,Blair,Aindrais,baindrais4y@home.pl,Female,"[{""name"":""Fuerza"",""score"":7},{""name"":""Destreza"",""score"":6},{""name"":""Liderazgo"",""score"":9},{""name"":""Motivacion"",""score"":5},{""name"":""Conocimiento"",""score"":2}]","[{""name"":""linterna"",""score"":10},{""name"":""botas"",""score"":6},{""name"":""cuerda"",""score"":10},{""name"":""pala"",""score"":4}]",-71.5016312143264,-33.7229729741278
180,Herbie,Wassung,hwassung4z@blinklist.com,Male,"[{""name"":""Fuerza"",""score"":3},{""name"":""Destreza"",""score"":10},{""name"":""Liderazgo"",""score"":2},{""name"":""Motivacion"",""score"":10},{""name"":""Conocimiento"",""score"":4}]","[{""name"":""linterna"",""score"":4},{""name"":""botas"",""score"":5},{""name"":""cuerda"",""score"":5},{""name"":""pala"",""score"":7},{""name"":""alta estatura"",""score"":6},{""name"":""guantes"",""score"":10},{""name"":""primeros auxilios"",""score"":9},{""name"":""condicion fisica"",""score"":4},{""name"":""casco"",""score"":9}]",-71.4957354945616,-33.6670431223062
181,Vladimir,Huccaby,vhuccaby50@scribd.com,Male,"[{""name"":""Fuerza"",""score"":4},{""name"":""Destreza"",""score"":3},{""name"":""Liderazgo"",""score"":1},{""name"":""Motivacion"",""score"":9},{""name"":""Conocimiento"",""score"":8}]","[{""name"":""linterna"",""score"":6},{""name"":""botas"",""score"":6},{""name"":""cuerda"",""score"":3},{""name"":""pala"",""score"":3},{""name"":""alta estatura"",""score"":3}]",-71.6042692792724,-33.3776602454085
182,Carlie,Rudeyeard,crudeyeard51@ibm.com,Female,"[{""name"":""Fuerza"",""score"":5},{""name"":""Destreza"",""score"":10},{""name"":""Liderazgo"",""score"":9},{""name"":""Motivacion"",""score"":9},{""name"":""Conocimiento"",""score"":10}]","[{""name"":""linterna"",""score"":10},{""name"":""botas"",""score"":3},{""name"":""cuerda"",""score"":4},{""name"":""pala"",""score"":10},{""name"":""alta estatura"",""score"":10},{""name"":""guantes"",""score"":1},{""name"":""primeros auxilios"",""score"":8},{""name"":""condicion fisica"",""score"":6}]",-71.5782595180674,-33.3309405776981
183,Dulce,Abernethy,dabernethy52@free.fr,Female,"[{""name"":""Fuerza"",""score"":5},{""name"":""Destreza"",""score"":7},{""name"":""Liderazgo"",""score"":1},{""name"":""Motivacion"",""score"":4},{""name"":""Conocimiento"",""score"":7}]","[{""name"":""linterna"",""score"":5},{""name"":""botas"",""score"":7},{""name"":""cuerda"",""score"":3}]",-71.5872272243528,-33.3856705810142
184,Wye,Buss,wbuss53@soup.io,Male,"[{""name"":""Fuerza"",""score"":6},{""name"":""Destreza"",""score"":3},{""name"":""Liderazgo"",""score"":9},{""name"":""Motivacion"",""score"":6},{""name"":""Conocimiento"",""score"":1}]","[{""name"":""linterna"",""score"":3}]",-71.3602886590856,-33.5396213924565
185,Marven,Syalvester,msyalvester54@apple.com,Male,"[{""name"":""Fuerza"",""score"":10},{""name"":""Destreza"",""score"":6},{""name"":""Liderazgo"",""score"":3},{""name"":""Motivacion"",""score"":8},{""name"":""Conocimiento"",""score"":1}]","[{""name"":""linterna"",""score"":4},{""name"":""botas"",""score"":1},{""name"":""cuerda"",""score"":2},{""name"":""pala"",""score"":6}]",-71.4403170241836,-33.5124300567319
186,Haily,Foltin,hfoltin55@etsy.com,Female,"[{""name"":""Fuerza"",""score"":2},{""name"":""Destreza"",""score"":1},{""name"":""Liderazgo"",""score"":6},{""name"":""Motivacion"",""score"":9},{""name"":""Conocimiento"",""score"":10}]","[{""name"":""linterna"",""score"":8},{""name"":""botas"",""score"":4},{""name"":""cuerda"",""score"":3},{""name"":""pala"",""score"":6}]",-71.4328996977361,-33.5449003518585
187,Oby,Holston,oholston56@csmonitor.com,Male,"[{""name"":""Fuerza"",""score"":8},{""name"":""Destreza"",""score"":2},{""name"":""Liderazgo"",""score"":10},{""name"":""Motivacion"",""score"":4},{""name"":""Conocimiento"",""score"":3}]","[{""name"":""linterna"",""score"":9},{""name"":""botas"",""score"":10},{""name"":""cuerda"",""score"":2},{""name"":""pala"",""score"":6},{""name"":""alta estatura"",""score"":7},{""name"":""guantes"",""score"":2},{""name"":""primeros auxilios"",""score"":6},{""name"":""condicion fisica"",""score"":4},{""name"":""casco"",""score"":4}]",-71.6817784490119,-33.4095921329302
188,Stacey,Scutching,sscutching57@mapy.cz,Female,"[{""name"":""Fuerza"",""score"":9},{""name"":""Destreza"",""score"":2},{""name"":""Liderazgo"",""score"":3},{""name"":""Motivacion"",""score"":9},{""name"":""Conocimiento"",""score"":2}]","[{""name"":""linterna"",""score"":6},{""name"":""botas"",""score"":7},{""name"":""cuerda"",""score"":9},{""name"":""pala"",""score"":10}]",-71.6776486721633,-33.3967765418178
189,Tudor,Easter,teaster58@tuttocitta.it,Male,"[{""name"":""Fuerza"",""score"":9},{""name"":""Destreza"",""score"":3},{""name"":""Liderazgo"",""score"":2},{""name"":""Motivacion"",""score"":5},{""name"":""Conocimiento"",""score"":9}]","[{""name"":""linterna"",""score"":2},{""name"":""botas"",""score"":10},{""name"":""cuerda"",""score"":8},{""name"":""pala"",""score"":5},{""name"":""alta estatura"",""score"":6},{""name"":""guantes"",""score"":3}]",-71.6145193001652,-33.4283802828448
190,Zsazsa,Jailler,zjailler59@mediafire.com,Female,"[{""name"":""Fuerza"",""score"":9},{""name"":""Destreza"",""score"":10},{""name"":""Liderazgo"",""score"":10},{""name"":""Motivacion"",""score"":10},{""name"":""Conocimiento"",""score"":7}]","[{""name"":""linterna"",""score"":2},{""name"":""botas"",""score"":9},{""name"":""cuerda"",""score"":7},{""name"":""pala"",""score"":3},{""name"":""alta estatura"",""score"":4},{""name"":""guantes"",""score"":8},{""name"":""primeros auxilios"",""score"":9}]",-71.6548098402878,-33.4572219646624
191,Ivan,Guerin,iguerin5a@example.com,Male,"[{""name"":""Fuerza"",""score"":4},{""name"":""Destreza"",""score"":8},{""name"":""Liderazgo"",""score"":8},{""name"":""Motivacion"",""score"":10},{""name"":""Conocimiento"",""score"":4}]","[{""name"":""linterna"",""score"":5},{""name"":""botas"",""score"":4},{""name"":""cuerda"",""score"":4},{""name"":""pala"",""score"":9},{""name"":""alta estatura"",""score"":10},{""name"":""guantes"",""score"":6},{""name"":""primeros auxilios"",""score"":4},{""name"":""condicion fisica"",""score"":5},{""name"":""casco"",""score"":5}]",-71.493121715017,-33.4881726186428
192,Valaria,Amorts,vamorts5b@google.com.au,Female,"[{""name"":""Fuerza"",""score"":5},{""name"":""Destreza"",""score"":1},{""name"":""Liderazgo"",""score"":5},{""name"":""Motivacion"",""score"":4},{""name"":""Conocimiento"",""score"":2}]","[{""name"":""linterna"",""score"":7},{""name"":""botas"",""score"":6}]",-71.6488871515167,-33.4730905823372
193,Markos,Trussman,mtrussman5c@xing.com,Male,"[{""name"":""Fuerza"",""score"":3},{""name"":""Destreza"",""score"":2},{""name"":""Liderazgo"",""score"":8},{""name"":""Motivacion"",""score"":4},{""name"":""Conocimiento"",""score"":9}]","[{""name"":""linterna"",""score"":4},{""name"":""botas"",""score"":6},{""name"":""cuerda"",""score"":5},{""name"":""pala"",""score"":10},{""name"":""alta estatura"",""score"":10},{""name"":""guantes"",""score"":6}]",-71.6146250139607,-33.6671582695325
194,Gray,Espinel,gespinel5d@arstechnica.com,Male,"[{""name"":""Fuerza"",""score"":10},{""name"":""Destreza"",""score"":6},{""name"":""Liderazgo"",""score"":5},{""name"":""Motivacion"",""score"":2},{""name"":""Conocimiento"",""score"":10}]","[{""name"":""linterna"",""score"":10}]",-71.7280943285701,-33.8561216537346
195,Barry,Raccio,braccio5e@ovh.net,Male,"[{""name"":""Fuerza"",""score"":5},{""name"":""Destreza"",""score"":3},{""name"":""Liderazgo"",""score"":1},{""name"":""Motivacion"",""score"":3},{""name"":""Conocimiento"",""score"":10}]","[{""name"":""linterna"",""score"":10},{""name"":""botas"",""score"":8},{""name"":""cuerda"",""score"":8},{""name"":""pala"",""score"":8},{""name"":""alta estatura"",""score"":1},{""name"":""guantes"",""score"":6},{""name"":""primeros auxilios"",""score"":1}]",-71.6432435337739,-33.7565128969068
196,Harbert,Tejero,htejero5f@wp.com,Male,"[{""name"":""Fuerza"",""score"":8},{""name"":""Destreza"",""score"":5},{""name"":""Liderazgo"",""score"":9},{""name"":""Motivacion"",""score"":3},{""name"":""Conocimiento"",""score"":4}]","[{""name"":""linterna"",""score"":6},{""name"":""botas"",""score"":7},{""name"":""cuerda"",""score"":9},{""name"":""pala"",""score"":9}]",-70.7567183653365,-32.7810433809901
197,Hermia,Endacott,hendacott5g@usda.gov,Female,"[{""name"":""Fuerza"",""score"":8},{""name"":""Destreza"",""score"":9},{""name"":""Liderazgo"",""score"":3},{""name"":""Motivacion"",""score"":9},{""name"":""Conocimiento"",""score"":3}]","[{""name"":""linterna"",""score"":2},{""name"":""botas"",""score"":8},{""name"":""cuerda"",""score"":1},{""name"":""pala"",""score"":6},{""name"":""alta estatura"",""score"":4},{""name"":""guantes"",""score"":2},{""name"":""primeros auxilios"",""score"":9},{""name"":""condicion fisica"",""score"":1}]",-70.7785576977967,-32.7003721778461
198,Vidovik,Jepps,vjepps5h@yale.edu,Male,"[{""name"":""Fuerza"",""score"":4},{""name"":""Destreza"",""score"":7},{""name"":""Liderazgo"",""score"":2},{""name"":""Motivacion"",""score"":6},{""name"":""Conocimiento"",""score"":1}]","[{""name"":""linterna"",""score"":10}]",-70.7151327732329,-32.7601616369113
199,Zacherie,Hullbrook,zhullbrook5i@facebook.com,Male,"[{""name"":""Fuerza"",""score"":7},{""name"":""Destreza"",""score"":6},{""name"":""Liderazgo"",""score"":10},{""name"":""Motivacion"",""score"":6},{""name"":""Conocimiento"",""score"":10}]","[{""name"":""linterna"",""score"":7},{""name"":""botas"",""score"":10}]",-70.862585369862,-32.7436417451814
200,Hildegaard,Choppen,hchoppen5j@shop-pro.jp,Female,"[{""name"":""Fuerza"",""score"":6},{""name"":""Destreza"",""score"":4},{""name"":""Liderazgo"",""score"":8},{""name"":""Motivacion"",""score"":9},{""name"":""Conocimiento"",""score"":9}]","[{""name"":""linterna"",""score"":10},{""name"":""botas"",""score"":1},{""name"":""cuerda"",""score"":2},{""name"":""pala"",""score"":1},{""name"":""alta estatura"",""score"":5},{""name"":""guantes"",""score"":4}]",-70.8992803788098,-32.7696194684189
201,Fredrika,Addinall,faddinall5k@marriott.com,Female,"[{""name"":""Fuerza"",""score"":3},{""name"":""Destreza"",""score"":7},{""name"":""Liderazgo"",""score"":3},{""name"":""Motivacion"",""score"":6},{""name"":""Conocimiento"",""score"":5}]","[{""name"":""linterna"",""score"":4},{""name"":""botas"",""score"":5},{""name"":""cuerda"",""score"":9},{""name"":""pala"",""score"":1},{""name"":""alta estatura"",""score"":1}]",-71.0072353963888,-32.7295348956636
202,Zandra,Garie,zgarie5l@stanford.edu,Female,"[{""name"":""Fuerza"",""score"":7},{""name"":""Destreza"",""score"":8},{""name"":""Liderazgo"",""score"":5},{""name"":""Motivacion"",""score"":10},{""name"":""Conocimiento"",""score"":10}]","[{""name"":""linterna"",""score"":10},{""name"":""botas"",""score"":7},{""name"":""cuerda"",""score"":2},{""name"":""pala"",""score"":4},{""name"":""alta estatura"",""score"":3},{""name"":""guantes"",""score"":10},{""name"":""primeros auxilios"",""score"":6},{""name"":""condicion fisica"",""score"":6},{""name"":""casco"",""score"":5}]",-70.8023416794991,-32.8527993931434
203,Luciano,Heinzler,lheinzler5m@ehow.com,Male,"[{""name"":""Fuerza"",""score"":2},{""name"":""Destreza"",""score"":3},{""name"":""Liderazgo"",""score"":2},{""name"":""Motivacion"",""score"":9},{""name"":""Conocimiento"",""score"":7}]","[{""name"":""linterna"",""score"":9}]",-70.7331188696116,-32.9176036198875
204,Nataline,Sparrowhawk,nsparrowhawk5n@umn.edu,Female,"[{""name"":""Fuerza"",""score"":3},{""name"":""Destreza"",""score"":10},{""name"":""Liderazgo"",""score"":7},{""name"":""Motivacion"",""score"":9},{""name"":""Conocimiento"",""score"":6}]","[{""name"":""linterna"",""score"":4},{""name"":""botas"",""score"":4},{""name"":""cuerda"",""score"":8},{""name"":""pala"",""score"":8},{""name"":""alta estatura"",""score"":5},{""name"":""guantes"",""score"":9},{""name"":""primeros auxilios"",""score"":6},{""name"":""condicion fisica"",""score"":3},{""name"":""casco"",""score"":8}]",-70.8234895040159,-32.9062012254548
205,Vanya,Hawker,vhawker5o@ycombinator.com,Male,"[{""name"":""Fuerza"",""score"":4},{""name"":""Destreza"",""score"":6},{""name"":""Liderazgo"",""score"":2},{""name"":""Motivacion"",""score"":9},{""name"":""Conocimiento"",""score"":5}]","[{""name"":""linterna"",""score"":9}]",-70.7739534588771,-32.7898789727558
206,Teodor,Bartomeu,tbartomeu5p@amazon.de,Male,"[{""name"":""Fuerza"",""score"":1},{""name"":""Destreza"",""score"":7},{""name"":""Liderazgo"",""score"":3},{""name"":""Motivacion"",""score"":2},{""name"":""Conocimiento"",""score"":2}]","[{""name"":""linterna"",""score"":9},{""name"":""botas"",""score"":2}]",-70.7998249069299,-32.7550948280558
207,Kalil,Beeho,kbeeho5q@privacy.gov.au,Male,"[{""name"":""Fuerza"",""score"":1},{""name"":""Destreza"",""score"":1},{""name"":""Liderazgo"",""score"":1},{""name"":""Motivacion"",""score"":6},{""name"":""Conocimiento"",""score"":3}]","[{""name"":""linterna"",""score"":7},{""name"":""botas"",""score"":10},{""name"":""cuerda"",""score"":5},{""name"":""pala"",""score"":9},{""name"":""alta estatura"",""score"":10},{""name"":""guantes"",""score"":10},{""name"":""primeros auxilios"",""score"":9}]",-70.7899376778943,-32.7740930154167
208,Carroll,Adcock,cadcock5r@smugmug.com,Female,"[{""name"":""Fuerza"",""score"":9},{""name"":""Destreza"",""score"":8},{""name"":""Liderazgo"",""score"":2},{""name"":""Motivacion"",""score"":8},{""name"":""Conocimiento"",""score"":6}]","[{""name"":""linterna"",""score"":4},{""name"":""botas"",""score"":4},{""name"":""cuerda"",""score"":1},{""name"":""pala"",""score"":10},{""name"":""alta estatura"",""score"":3},{""name"":""guantes"",""score"":10},{""name"":""primeros auxilios"",""score"":2}]",-70.5834208779764,-32.4936695321923
209,Whitaker,Atheis,watheis5s@ifeng.com,Male,"[{""name"":""Fuerza"",""score"":9},{""name"":""Destreza"",""score"":2},{""name"":""Liderazgo"",""score"":9},{""name"":""Motivacion"",""score"":9},{""name"":""Conocimiento"",""score"":7}]","[{""name"":""linterna"",""score"":6},{""name"":""botas"",""score"":4},{""name"":""cuerda"",""score"":4}]",-70.3798716969875,-32.2977249624412
210,Ode,Darke,odarke5t@xing.com,Male,"[{""name"":""Fuerza"",""score"":7},{""name"":""Destreza"",""score"":7},{""name"":""Liderazgo"",""score"":6},{""name"":""Motivacion"",""score"":4},{""name"":""Conocimiento"",""score"":3}]","[{""name"":""linterna"",""score"":6},{""name"":""botas"",""score"":9},{""name"":""cuerda"",""score"":1},{""name"":""pala"",""score"":3},{""name"":""alta estatura"",""score"":7},{""name"":""guantes"",""score"":4},{""name"":""primeros auxilios"",""score"":4},{""name"":""condicion fisica"",""score"":5}]",-70.4052674794709,-32.4447933009374
211,Gerald,Cafe,gcafe5u@goo.ne.jp,Male,"[{""name"":""Fuerza"",""score"":9},{""name"":""Destreza"",""score"":1},{""name"":""Liderazgo"",""score"":1},{""name"":""Motivacion"",""score"":10},{""name"":""Conocimiento"",""score"":6}]","[{""name"":""linterna"",""score"":3},{""name"":""botas"",""score"":9},{""name"":""cuerda"",""score"":6},{""name"":""pala"",""score"":3}]",-70.6673163591718,-32.7780514312263
212,Inna,Yelyashev,iyelyashev5v@ning.com,Female,"[{""name"":""Fuerza"",""score"":7},{""name"":""Destreza"",""score"":8},{""name"":""Liderazgo"",""score"":6},{""name"":""Motivacion"",""score"":10},{""name"":""Conocimiento"",""score"":7}]","[{""name"":""linterna"",""score"":9},{""name"":""botas"",""score"":1},{""name"":""cuerda"",""score"":1},{""name"":""pala"",""score"":9},{""name"":""alta estatura"",""score"":4}]",-70.6206538904377,-32.6793703211277
213,Prescott,Twelvetree,ptwelvetree5w@comcast.net,Male,"[{""name"":""Fuerza"",""score"":4},{""name"":""Destreza"",""score"":1},{""name"":""Liderazgo"",""score"":7},{""name"":""Motivacion"",""score"":2},{""name"":""Conocimiento"",""score"":1}]","[{""name"":""linterna"",""score"":4},{""name"":""botas"",""score"":3}]",-70.6595615931111,-32.7265687792967
214,Mirilla,Stilldale,mstilldale5x@vkontakte.ru,Female,"[{""name"":""Fuerza"",""score"":1},{""name"":""Destreza"",""score"":3},{""name"":""Liderazgo"",""score"":1},{""name"":""Motivacion"",""score"":7},{""name"":""Conocimiento"",""score"":10}]","[{""name"":""linterna"",""score"":7},{""name"":""botas"",""score"":8},{""name"":""cuerda"",""score"":3},{""name"":""pala"",""score"":2},{""name"":""alta estatura"",""score"":4}]",-71.3142436613271,-33.1491269135637
215,Olenolin,Levesley,olevesley5y@xrea.com,Male,"[{""name"":""Fuerza"",""score"":1},{""name"":""Destreza"",""score"":4},{""name"":""Liderazgo"",""score"":3},{""name"":""Motivacion"",""score"":1},{""name"":""Conocimiento"",""score"":6}]","[{""name"":""linterna"",""score"":4},{""name"":""botas"",""score"":9},{""name"":""cuerda"",""score"":8},{""name"":""pala"",""score"":7},{""name"":""alta estatura"",""score"":10},{""name"":""guantes"",""score"":4},{""name"":""primeros auxilios"",""score"":2},{""name"":""condicion fisica"",""score"":8}]",-71.2315195912598,-33.1779889296125
216,Marietta,Douglass,mdouglass5z@ucla.edu,Male,"[{""name"":""Fuerza"",""score"":9},{""name"":""Destreza"",""score"":1},{""name"":""Liderazgo"",""score"":9},{""name"":""Motivacion"",""score"":9},{""name"":""Conocimiento"",""score"":1}]","[{""name"":""linterna"",""score"":7},{""name"":""botas"",""score"":2},{""name"":""cuerda"",""score"":3},{""name"":""pala"",""score"":5}]",-71.3573195739148,-33.1497907749509
217,Vivian,Janowski,vjanowski60@loc.gov,Female,"[{""name"":""Fuerza"",""score"":8},{""name"":""Destreza"",""score"":1},{""name"":""Liderazgo"",""score"":3},{""name"":""Motivacion"",""score"":10},{""name"":""Conocimiento"",""score"":8}]","[{""name"":""linterna"",""score"":8},{""name"":""botas"",""score"":6},{""name"":""cuerda"",""score"":5},{""name"":""pala"",""score"":7}]",-71.0838345211349,-33.0565144539627
218,Fleming,Stuffins,fstuffins61@about.me,Male,"[{""name"":""Fuerza"",""score"":7},{""name"":""Destreza"",""score"":2},{""name"":""Liderazgo"",""score"":1},{""name"":""Motivacion"",""score"":6},{""name"":""Conocimiento"",""score"":9}]","[{""name"":""linterna"",""score"":4},{""name"":""botas"",""score"":8}]",-71.1498565379947,-32.9940672580187
219,Willis,Iacomi,wiacomi62@de.vu,Male,"[{""name"":""Fuerza"",""score"":6},{""name"":""Destreza"",""score"":9},{""name"":""Liderazgo"",""score"":2},{""name"":""Motivacion"",""score"":6},{""name"":""Conocimiento"",""score"":9}]","[{""name"":""linterna"",""score"":5},{""name"":""botas"",""score"":2},{""name"":""cuerda"",""score"":1}]",-71.0309781123576,-33.033638350781
220,Urbanus,Tarte,utarte63@etsy.com,Male,"[{""name"":""Fuerza"",""score"":7},{""name"":""Destreza"",""score"":4},{""name"":""Liderazgo"",""score"":9},{""name"":""Motivacion"",""score"":1},{""name"":""Conocimiento"",""score"":2}]","[{""name"":""linterna"",""score"":8},{""name"":""botas"",""score"":2},{""name"":""cuerda"",""score"":4}]",-70.8313015082669,-34.1354894460492
